"city","latitude","longitude","population","country","province"
"Al Musayyib",32.778631,44.28999914,59677.5,"Iraq","Babil"
"Atikokan",48.75039512,-91.61658899,3625,"Canada","Ontario"
"Mesa",33.42391461,-111.7360844,762217.5,"United States of America","Arizona"
"Ragusa",36.93003135,14.72999467,67361,"Italy","Sicily"
"Gode",5.950010192,43.44999874,71671,"Ethiopia","Somali"
"Pyongsan",38.33668968,126.3866418,66260,"North Korea","Hwanghae-bukto"
"Chamdo",31.16668805,97.23327917,93140,"China","Xizang"
"Pula",44.86871991,13.84808467,60338.5,"Croatia","Istarska"
"Cuiaba",-15.56960651,-56.08498519,603143.5,"Brazil","Mato Grosso"
"Esperanza",27.58000775,-109.9299931,3836,"Mexico","Sonora"
"Santa Marta",11.24720624,-74.20165715,417211,"Colombia","Magdalena"
"Sanya",18.25910454,109.5040317,253721,"China","Hainan"
"Tolu",9.535837829,-75.57203862,19719.5,"Colombia","Sucre"
"Santa Maria",-29.68331867,-53.80000838,239211.5,"Brazil","Rio Grande do Sul"
"Dong Ha",16.8499981,107.1333007,17662,"Vietnam","Quảng Trị "
"Pittsburgh",40.4299986,-79.99998539,1535267.5,"United States of America","Pennsylvania"
"Chelyuskin",77.71697329,104.2500085,885,"Russia","Taymyr"
"Corrientes",-27.48996417,-58.80998682,339945,"Argentina","Corrientes"
"Rangoon",16.7833541,96.16667761,3694910,"Myanmar","Yangon"
"Macara",-4.379591859,-79.94998845,11748,"Ecuador","Loja"
"Montpelier",44.25997154,-72.57581323,8183,"United States of America","Vermont"
"Colonia del Sacramento",-34.47999901,-57.84000247,21714,"Uruguay","Colonia"
"Huanuco",-9.920028871,-76.24000818,153052,"Peru","Huánuco"
"Munster",51.97040529,7.620041055,253612.5,"Germany","Nordrhein-Westfalen"
"Kangirsuk",60.02482322,-69.99909713,549,"Canada","Québec"
"Espungabera",-20.45013548,32.77003048,393,"Mozambique","Manica"
"Frankfurt",50.09997683,8.67501542,1787332,"Germany","Hessen"
"Bayamo",20.37954287,-76.64329106,177623,"Cuba","Granma"
"Brokopondo",5.040375792,-55.02001144,6170,"Suriname","Brokopondo"
"Vicuna",-30.02949909,-70.73998214,13496,"Chile","Coquimbo"
"Novolazarevskaya Station",-71.30123475,-11.8502129,35,"Antarctica",""
"Ende",-8.862315655,121.6489465,60930,"Indonesia","Nusa Tenggara Timur"
"Monchegorsk",67.92912111,32.8287349,46934.5,"Russia","Murmansk"
"Port Charlotte",27.00004315,-82.10569666,56806,"United States of America","Florida"
"Kashmar",35.18143007,58.45146033,126643,"Iran","Razavi Khorasan"
"Slyudyanka",51.65383547,103.6988277,14920.5,"Russia","Irkutsk"
"Mekele",13.49998863,39.46998328,95856,"Ethiopia","Tigray"
"Nikolayevsk",50.01610598,45.42610551,9803.5,"Russia","Volgograd"
"Sopur",34.29995933,74.46665849,60725.5,"India","Jammu and Kashmir"
"Machiques",10.07043052,-72.54994918,44936.5,"Venezuela","Zulia"
"Pirassununga",-21.99004148,-47.42998377,51698,"Brazil","São Paulo"
"Hooper Bay",61.53108787,-166.0965648,623,"United States of America","Alaska"
"Ad Damman",26.42819175,50.09967037,1411656,"Saudi Arabia","Ash Sharqiyah"
"Salamanca",40.97040489,-5.670000449,160456.5,"Spain","Castilla y León"
"Pittsfield",42.44819582,-73.25982833,45202,"United States of America","Massachusetts"
"Goundam",16.41699404,-3.666582684,6217.5,"Mali","Timbuktu"
"Nagaoka",37.45041302,138.8600406,187560,"Japan","Niigata"
"Inowroclaw",52.77994244,18.24998653,78302,"Poland","Kuyavian-Pomeranian"
"Sdid Bouzid",35.01669608,9.500004482,42098,"Tunisia","Sidi Bou Zid"
"Boa Vista",2.816092955,-60.66599756,202299.5,"Brazil","Roraima"
"Abau",-10.04260537,148.5650297,230,"Papua New Guinea","Central"
"Mykolayiv",46.96773907,31.984342,352917.5,"Ukraine","Mykolayiv"
"Robore",-18.3295414,-59.75998051,9959,"Bolivia","Santa Cruz"
"Kaka",37.35034161,59.60002071,28463,"Turkmenistan","Ahal"
"Eau Claire",44.81135907,-91.49835331,71296,"United States of America","Wisconsin"
"Mundybash",53.23327395,87.31667517,5870,"Russia","Kemerovo"
"Las Lajas",-38.51626788,-70.36659408,1218,"Argentina","Neuquén"
"Puerto Suarez",-18.94955524,-57.8499679,17273,"Bolivia","Santa Cruz"
"Southern Cross",-31.216145,119.3166857,187,"Australia","Western Australia"
"Joliet",41.52998313,-88.10667403,362946.5,"United States of America","Illinois"
"Lublin",51.25039756,22.57272009,358001,"Poland","Lublin"
"Zaragoza",41.65000165,-0.889982138,548955.5,"Spain","Aragón"
"Barquisimeto",10.04999249,-69.29996668,962745,"Venezuela","Lara"
"Sibiti",-3.689608135,13.35002722,20950,"Congo (Brazzaville)","Lékoumou"
"Huancayo",-12.08000039,-75.20001998,394695,"Peru","Junín"
"Altamira",-3.199612204,-52.21000208,56769,"Brazil","Pará"
"Ararangua",-28.94000486,-49.49998661,42198.5,"Brazil","Santa Catarina"
"Er Rachidia",31.94041343,-4.449971559,228489,"Morocco","Meknès - Tafilalet"
"Manjimup",-34.23332518,116.1500057,4016.5,"Australia","Western Australia"
"Charagua",-19.79958087,-63.2199502,3025,"Bolivia","Santa Cruz"
"Nieuw Nickerie",5.950423603,-56.98999455,14567.5,"Suriname","Nickerie"
"Chilecito",-29.16552081,-67.49999903,20343,"Argentina","La Rioja"
"Juazeiro",-9.420007712,-40.49996749,95132,"Brazil","Bahia"
"Bongandanga",1.510358703,21.05002234,2896,"Congo (Kinshasa)","Équateur"
"Talcahuano",-36.71668781,-73.11665877,270521,"Chile","Bío-Bío"
"Bodo",67.24677227,14.39901132,31383.5,"Norway","Nordland"
"Nigde",37.97600412,34.69400163,91039,"Turkey","Nigde"
"Calama",-22.45001341,-68.91998987,134336.5,"Chile","Antofagasta"
"Gorno Altaysk",51.96133608,85.95768835,57392.5,"Russia","Gorno-Altay"
"Dolinsk",47.35042889,142.8000069,11791.5,"Russia","Sakhalin"
"Maoming",21.92040489,110.8700179,1217715,"China","Guangdong"
"Nizhneudinsk",54.89766848,99.02769161,41024.5,"Russia","Irkutsk"
"Lavras",-21.24956989,-45.0099506,70436,"Brazil","Minas Gerais"
"Opole",50.68497988,17.93134965,129544,"Poland","Opole"
"Dingzhou",38.50042645,114.9999983,152934,"China","Hebei"
"Lihue",21.98151227,-159.3710063,10694.5,"United States of America","Hawaii"
"Valdivia",-39.7950012,-73.24502303,146509,"Chile","Los Ríos"
"Liege",50.62999615,5.580010537,472803,"Belgium","Liege"
"Maralal",1.110460631,36.68002437,20841,"Kenya","Rift Valley"
"Osaka",34.75003522,135.4601448,6943206.5,"Japan","Osaka"
"Hsinchu",24.8167914,120.9767395,582778.5,"Taiwan","Hsinchu City"
"Huanta",-12.94961139,-74.25000045,15534.5,"Peru","Ayacucho"
"Livingstone",-17.86000934,25.86001298,137341.5,"Zambia","Southern"
"Baerum",59.91348606,11.34723651,113659,"Norway","Akershus"
"Moyobamba",-6.049619121,-76.96665633,46005,"Peru","San Martín"
"Az Aubayr",30.38916445,47.70798173,192447.5,"Iraq","Al-Basrah"
"Kok Yangak",41.03071128,73.20575354,14523,"Kyrgyzstan","Jalal-Abad"
"Liverpool",44.03995913,-64.72001367,4331,"Canada","Nova Scotia"
"Sesheke",-17.46954222,24.30000484,10177.5,"Zambia","Western"
"Kotovsk",52.59473411,41.50438106,31221,"Russia","Tambov"
