"city","latitude","longitude","population","country","province"
"Kundian",32.45219098,71.47180253,35406,"Pakistan","Punjab"
"Schaffhausen",47.70600309,8.632998523,33863,"Switzerland","Schaffhausen"
"Bamian",34.82106447,67.52103593,61863,"Afghanistan","Bamyan"
"Severouralsk",60.15652061,59.96154903,34819,"Russia","Sverdlovsk"
"Tuticorin",8.81999005,78.13000077,436094,"India","Tamil Nadu"
"Nephi",39.71027508,-111.8354841,4960,"United States of America","Utah"
"Otradnyy",53.37781293,51.34739783,46400,"Russia","Samara"
"Puerto Pinasco",-22.64002765,-57.7899974,473.5,"Paraguay","Presidente Hayes"
"Comayagua",14.46039512,-87.64998356,64963,"Honduras","Comayagua"
"Corum",40.5199931,34.95000077,168544,"Turkey","Çorum"
"Retalhuleu",14.53709704,-91.67701454,36656,"Guatemala","Retalhuleu"
"Khvoy",38.53039878,44.97000932,189049,"Iran","West Azarbaijan"
"Agadir",30.43998822,-9.620043581,752031.5,"Morocco","Souss - Massa - Draâ"
"Joplin",37.08459556,-94.51307886,60290.5,"United States of America","Missouri"
"Pirgos",37.68373212,21.44999792,22311,"Greece","Dytiki Ellada"
"Idaho Falls",43.46668662,-112.0333014,65787,"United States of America","Idaho"
"Chumikan",54.7113945,135.3145141,1305,"Russia","Khabarovsk"
"Bukhara",39.78001243,64.43001013,283560,"Uzbekistan","Bukhoro"
"Oum el Bouaghi",35.84999715,7.149996522,100821,"Algeria","Oum el Bouaghi"
"Bikin",46.82025454,134.2649206,19264.5,"Russia","Khabarovsk"
"Yishan",24.50037661,108.6666898,47062,"China","Guangxi"
"Popondetta",-8.769194724,148.2484082,25192,"Papua New Guinea","Northern"
"Focsani",45.69655052,27.186547,92636.5,"Romania","Vrancea"
"Rosario do Sul",-30.25000242,-54.92001754,28596.5,"Brazil","Rio Grande do Sul"
"Zahedan",29.49999392,60.83002315,575433.5,"Iran","Sistan and Baluchestan"
"Moba",-7.059583314,29.71998409,10006,"Congo (Kinshasa)","Katanga"
"Collipulli",-37.95997109,-72.43000818,11307.5,"Chile","La Araucanía"
"Dengzhou",32.68036826,112.0800215,59338,"China","Henan"
"National City",32.67194501,-117.0980052,104291,"United States of America","California"
"York",39.96292116,-76.72804041,128798.5,"United States of America","Pennsylvania"
"Shuangcheng",45.35034426,126.2799816,118525,"China","Heilongjiang"
"Oaxaca",17.08268984,-96.66994979,396647,"Mexico","Oaxaca"
"Zabol",31.02145144,61.48145626,177978.5,"Iran","Sistan and Baluchestan"
"Neumayer",-70.89039668,-7.838438004,40,"Antarctica",""
"Magdalena",30.61661826,-111.0499506,13402,"Mexico","Sonora"
"Krasnokamensk",50.0664905,118.0264803,52308,"Russia","Chita"
"Elazig",38.67997622,39.22999792,271492,"Turkey","Elazig"
"St. Charles",38.60305585,-76.93893193,52792,"United States of America","Maryland"
"Puyang",35.70039064,114.9799996,666322,"China","Henan"
"Deer Lake",52.61703249,-94.06659448,3743,"Canada","Ontario"
"Longyearbyen",78.21668439,15.5499963,1232,"Svalbard and Jan Mayen Islands","Svalbard"
"Barra do Corda",-5.509600404,-45.25996118,48901,"Brazil","Maranhão"
"Taloyoak",69.5333126,-93.53331954,774,"Canada","Nunavut"
"Penola",-37.38295205,140.8166654,1513,"Australia","South Australia"
"Kano",11.99997683,8.5200378,3140000,"Nigeria","Kano"
"Abu Dhabi",24.46668357,54.36659338,581861,"United Arab Emirates","Abu Dhabi"
"Tsiigehtchic",67.43328575,-133.7499862,175,"Canada","Northwest Territories"
"Portoviejo",-1.060001201,-80.45998316,191963.5,"Ecuador","Manabi"
"Shymkent",42.32001243,69.59501786,439712,"Kazakhstan","South Kazakhstan"
"Masaka",-0.329606507,31.7299906,65373,"Uganda","Masaka"
"Novo Airao",-2.620784486,-60.94378422,9049,"Brazil","Amazonas"
"Santa Maria",-29.68331867,-53.80000838,239211.5,"Brazil","Rio Grande do Sul"
"Worcester",-33.64002806,19.43993974,109200,"South Africa","Western Cape"
"Ourinhos",-22.97003335,-49.86998987,96994,"Brazil","São Paulo"
"Sao Luis",-2.515984681,-44.26599085,524692.5,"Brazil","Maranhão"
"Buenaventura",3.872402425,-77.05045329,246596,"Colombia","Valle del Cauca"
"Az Zawiyah",32.76041506,12.71998816,193061.5,"Libya","Az Zawiyah"
"Al Jubayl",27.00464235,49.64600297,235237,"Saudi Arabia","Ash Sharqiyah"
"Lang Son",21.8459971,106.7570016,148000,"Vietnam","Lạng Sơn"
"Bombo",0.583299106,32.53329952,48000,"Uganda","Bamunanika"
"Mubende",0.590440693,31.37001257,9556,"Uganda","Mubende"
"Berens River",52.36655682,-97.03331262,522.5,"Canada","Manitoba"
"Emden",53.36667666,7.216654824,49786,"Germany","Niedersachsen"
"Puerto Limon",10.00002138,-83.03334029,74041,"Costa Rica","Limón"
"Hapur",28.74365765,77.76278804,242920,"India","Uttar Pradesh"
"Keelung",25.13325787,121.7332824,443603.5,"Taiwan","Keelung City"
"Otuzco",-7.899997133,-78.56999516,8754.5,"Peru","La Libertad"
"Mahmud-E Eraqi",35.01669608,69.33330065,7407,"Afghanistan","Kapisa"
"Louisville",38.22501691,-85.74870427,595819.5,"United States of America","Kentucky"
"Rajkot",22.31001935,70.80000891,1179941,"India","Dadra and Nagar Haveli"
"Gemena",3.260019347,19.76999711,157847.5,"Congo (Kinshasa)","Équateur"
"Tyler",32.35108604,-95.30078272,101561.5,"United States of America","Texas"
"Satu Mare",47.79199816,22.88500248,112490,"Romania","Satu Mare"
"Ye",15.25326662,97.86786576,50798,"Myanmar","Mon"
"Beer Sheva",31.2500163,34.8300081,196504,"Israel","HaDarom"
"Lowell",42.63368837,-71.31669112,415074,"United States of America","Massachusetts"
"Klintsy",52.7652405,32.24484289,60885,"Russia","Bryansk"
"Besalampy",-16.74953449,44.48332068,1022,"Madagascar","Mahajanga"
"Luzern",47.05042137,8.280000772,163745.5,"Switzerland","Lucerne"
"Nola",3.533697732,16.06660559,25301,"Central African Republic","Sangha-Mbaéré"
"Haldia",22.02566978,88.05833533,200762,"India","West Bengal"
"Mutare",-18.97001911,32.6500378,216785,"Zimbabwe","Manicaland"
"Burketown",-17.71609048,139.5666125,186.5,"Australia","Queensland"
"Zixing",25.96997683,113.4000443,6618,"China","Hunan"
"Curitiba",-25.420013,-49.3199976,2291430,"Brazil","Paraná"
"Roebourne",-20.7829317,117.1333048,11281.5,"Australia","Western Australia"
"Bongaree",-27.07872313,153.1508996,10327.5,"Australia","Queensland"
"Lvov",49.83498008,24.02999548,760841.5,"Ukraine","L'viv"
"Izmir",38.43614968,27.15179401,2454909,"Turkey","Izmir"
"Xalapa",19.52998232,-96.91998621,438667,"Mexico","Veracruz"
"Pol-e Khomri",35.95107302,68.70111894,41029,"Afghanistan","Baghlan"
"Zyryanovsk",49.74526979,84.25484656,47293.5,"Kazakhstan","East Kazakhstan"
"Coihaique",-45.56999754,-72.07000431,43221,"Chile","Aisén del General Carlos Ibáñez del Campo"
"Grenoble",45.18038047,5.720001992,273563,"France","Rhône-Alpes"
"Wadi Halfa",21.80002464,31.34996212,17121,"Sudan","Northern"
"Ujjain",23.19040489,75.79004024,485348,"India","Madhya Pradesh"
"Erie",42.12992067,-80.08499313,138991.5,"United States of America","Pennsylvania"
"Dedza",-14.3666667,34.3333333,15608,"Malawi","Dedza"
"Bartlesville",36.74720013,-95.98058618,24935,"United States of America","Oklahoma"
"Canas",10.42999514,-85.10001001,15365,"Costa Rica","Guanacaste"
