"city","latitude","longitude","population","country","province"
"Quiemo",38.13375633,85.53332149,32494,"China","Xinjiang Uygur"
"Mereeg",3.766577575,47.2999963,548,"Somalia","Galguduud"
"Nueva San Salvador",13.67399699,-89.28999848,124694,"El Salvador","La Libertad"
"Mikhalkino",69.42444039,161.4811431,570,"Russia","Koryak"
"Reading",51.46997072,-0.980028322,257752,"United Kingdom","Oxfordshire"
"Xinzhou",38.41043194,112.7199825,216805,"China","Shanxi"
"Grytviken",-54.28057697,-36.50798893,99,"South Georgia and the Islands",""
"La Rochelle",46.16665102,-1.149992108,76903.5,"France","Poitou-Charentes"
"Colombo",6.931965758,79.85775061,217000,"Sri Lanka","Colombo"
"Penza",53.18002138,44.99998165,491943,"Russia","Penza"
"Salt Lake City",40.7750163,-111.9300519,572013,"United States of America","Utah"
"Budapest",47.50000633,19.08332068,1679000,"Hungary","Budapest"
"Abomey",7.190399596,1.98999711,82154,"Benin","Zou"
"Masaya",11.96900098,-86.09499852,130113,"Nicaragua","Masaya"
"Tepelene",40.2832981,20.03329854,11955,"Albania","Gjirokastër"
"Bloemhof",-27.64959267,25.59000362,10662.5,"South Africa","North West"
"Terra Nova Bay",-74.61919259,164.2190271,60,"Antarctica",""
"Lipetsk",52.62000389,39.63999874,502144,"Russia","Lipetsk"
"Quezon City",14.6504352,121.0299662,2761720,"Philippines","Metropolitan Manila"
"Bandundu",-3.309993063,17.37996212,107997.5,"Congo (Kinshasa)","Bandundu"
"Jijel",36.82199703,5.76600356,148000,"Algeria","Jijel"
"San Javier",-16.28961424,-62.50001998,4210,"Bolivia","Santa Cruz"
"Greenville",35.61287661,-77.3666836,81661,"United States of America","North Carolina"
"Legazpi",13.16998293,123.7500069,320081,"Philippines","Albay"
"Termiz",37.23293276,67.27293738,159036,"Uzbekistan","Surkhandarya"
"Ayoun el Atrous",16.66659121,-9.616658774,1423,"Mauritania","Hodh el Gharbi"
"Nantes",47.21038576,-1.590016929,357903,"France","Pays de la Loire"
"Xingyi",25.09041811,104.8900211,539536,"China","Guizhou"
"Joao Pessoa",-7.10113513,-34.87607117,803441.5,"Brazil","Paraíba"
"West Palm Beach",26.74501996,-80.12362126,675521.5,"United States of America","Florida"
"San Carlos",-17.39998574,-63.72999658,5266.5,"Bolivia","Santa Cruz"
"Southern Cross",-31.216145,119.3166857,187,"Australia","Western Australia"
"Changzhou",31.77998395,119.9699792,1138009,"China","Jiangsu"
"Bangkok",13.74999921,100.5166447,5904238,"Thailand","Bangkok Metropolis"
"Salima",-13.78294554,34.43328813,50616.5,"Malawi","Salima"
"Denpasar",-8.650028871,115.2199849,569133.5,"Indonesia","Bali"
"Hinche",19.14300009,-72.0039956,18590,"Haiti","Centre"
"Los Mochis",25.78998781,-108.9999982,231824,"Mexico","Sinaloa"
"Ruteng",-8.611839987,120.4698453,44272.5,"Indonesia","Nusa Tenggara Timur"
"Novyy Port",67.69833417,72.92830277,1790,"Russia","Yamal-Nenets"
"Asyut",27.18997988,31.17994665,420585,"Egypt","Asyut"
"Indiga",67.68975404,49.01659483,10,"Russia","Nenets"
"Zvolen",48.58373863,19.13324011,38276.5,"Slovakia","Banskobystrický"
"Apucarana",-23.54999795,-51.4700214,102577,"Brazil","Paraná"
"Trois Rivieres",46.34997316,-72.54994918,118051,"Canada","Québec"
"Aarhus",56.157204,10.21068396,232325.5,"Denmark","Midtjylland"
"Rize",41.02084108,40.52185705,187976.5,"Turkey","Rize"
"Resita",45.2969625,21.88650875,82276,"Romania","Caras-Severin"
"Kalachinsk",55.04866701,74.56825435,20506.5,"Russia","Omsk"
"Jacksonville",30.33002077,-81.66998682,904953.5,"United States of America","Florida"
"Coro",11.42001223,-69.67999516,184098,"Venezuela","Falcón"
"Arak",25.2799931,3.749993041,423251,"Algeria","Tamanghasset"
"Katima Mulilo",-17.4996179,24.26000728,21748.5,"Namibia","Caprivi"
"Vina del Mar",-33.02998777,-71.53998499,399042.5,"Chile","Valparaíso"
"Dajabon",19.548,-71.70499757,16398,"Dominican Republic","Dajabón"
"Wajir",1.750369892,40.04999955,40240,"Kenya","North-Eastern"
"Sonson",5.716613585,-75.31662785,18024.5,"Colombia","Antioquia"
"Rudny",52.95269676,63.1300378,104235.5,"Kazakhstan","Qostanay"
"Chittagong",22.32999229,91.79996741,4224611,"Bangladesh","Chittagong"
"Lalitpur",27.66661745,85.3333337,191208.5,"Nepal","Bhaktapur"
"Murfreesboro",35.84596315,-86.39026717,100237,"United States of America","Tennessee"
"Ahvaz",31.27998863,48.72001298,918572.5,"Iran","Khuzestan"
"Toledo",41.67002626,-83.57997359,388449,"United States of America","Ohio"
"Leeton",-34.54493406,146.3973067,6277,"Australia","New South Wales"
"Butembo",0.130003681,29.28001094,220512,"Congo (Kinshasa)","Nord-Kivu"
"Luba",3.449997026,8.550000525,8655,"Equatorial Guinea","Bioko Sur"
"Austin",30.26694969,-97.74277836,919684,"United States of America","Texas"
"Bhatpara",22.85042564,88.52001257,483129,"India","West Bengal"
"Sinop",-11.84998859,-55.45998458,8961,"Brazil","Mato Grosso"
"Oskemen",49.99003522,82.61494665,284350.5,"Kazakhstan","East Kazakhstan"
"Janesville",42.68262596,-89.02157943,65476.5,"United States of America","Wisconsin"
"Malacca",2.206414407,102.2464615,645916.5,"Malaysia","Melaka"
"Sirjan",29.46996991,55.73002437,171007,"Iran","Kerman"
"Richmond",-20.71626911,143.1333199,296,"Australia","Queensland"
"Balyqshy",47.06659609,51.86659094,25442,"Kazakhstan","Atyrau"
"Paphos",34.75591516,32.42245666,35961,"Cyprus","Paphos"
"Lulea",65.59663477,22.15837833,47094.5,"Sweden","Norrbotten"
"Coracora",-15.01961424,-73.78997685,6433.5,"Peru","Ayacucho"
"Mariscal Jose F. Estigarribia",-22.03000205,-60.60999555,2250,"Paraguay","Boquerón"
"Kirklareli",41.74299917,27.22599962,58223,"Turkey","Kirklareli"
"Uyo",5.007996056,7.849998524,495756,"Nigeria","Akwa Ibom"
"Ulsan",35.54673077,129.3169539,1011932.5,"South Korea","Ulsan"
"Kigoma",-4.879613018,29.61001664,164268,"Tanzania","Kigoma"
"Basankusu",1.233708922,19.80002112,52216,"Congo (Kinshasa)","Équateur"
"Hattiesburg",31.32727256,-89.2902452,53498.5,"United States of America","Mississippi"
"Kulob",37.92115948,69.77573035,96975,"Tajikistan","Khatlon"
"Mednogorsk",51.41912111,57.57874874,27274,"Russia","Orenburg"
"Whyalla",-33.02502684,137.5614119,21102,"Australia","South Australia"
"Onverwacht",5.599998125,-55.19999648,2105,"Suriname","Para"
"Ingeniero Guillermo N. Juarez",-23.90000242,-61.84998214,6453,"Argentina","Formosa"
"Waingapu",-9.658236065,120.253011,35990.5,"Indonesia","Nusa Tenggara Timur"
"Sariwon",38.50700411,125.7620047,154942,"North Korea","Hwanghae-bukto"
"Owerri",5.492997053,7.026003588,215038,"Nigeria","Imo"
"Montes Claros",-16.72002724,-43.86002079,300022,"Brazil","Minas Gerais"
"Caxias",-4.833000876,-43.35002608,134640,"Brazil","Maranhão"
"Velsk",61.06739524,42.0974198,25729,"Russia","Arkhangel'sk"
"Enterprise",31.32781516,-85.84399561,23388.5,"United States of America","Alabama"
"Naryn",41.42634605,75.99106156,44003.5,"Kyrgyzstan","Naryn"
"Castro",-24.79002562,-50.00998132,38417.5,"Brazil","Paraná"
"Manjimup",-34.23332518,116.1500057,4016.5,"Australia","Western Australia"
