"city","latitude","longitude","population","country","province"
"Otsu",35.006402,135.8674068,437802.5,"Japan","Shiga"
"Roanoke",37.27119916,-79.94161686,144669.5,"United States of America","Virginia"
"Ust Maya",60.45657981,134.5433016,3062,"Russia","Sakha (Yakutia)"
"Mbuji-Mayi",-6.150026429,23.59999589,1084880.5,"Congo (Kinshasa)","Kasaï-Oriental"
"Atakpame",7.530042947,1.120024372,74757,"Togo","Plateaux"
"Fengjie",31.05044191,109.5166638,49168,"China","Chongqing"
"Karratha",-20.73037677,116.8700134,16636,"Australia","Western Australia"
"Saint-Louis",16.01998985,-16.51001062,198396,"Mauritania","Trarza"
"San Angelo",31.4640084,-100.4366966,87297.5,"United States of America","Texas"
"Tunja",5.550448017,-73.37002832,139445.5,"Colombia","Boyacá"
"Linden",5.99000775,-58.2699681,28041.5,"Guyana","Upper Takutu-Upper Essequibo"
"Makeni",8.880425638,-12.04997278,83116,"Sierra Leone","Northern"
"Iquitos",-3.750017884,-73.25000981,448174.5,"Peru","Loreto"
"Jaguaquara",-13.5299894,-39.96999984,30554.5,"Brazil","Bahia"
"Las Palmas",28.09997601,-15.42999902,364718,"Spain",""
"Keffi",8.849032205,7.873617308,77056.5,"Nigeria","Nassarawa"
"Dongola",19.16659365,30.48329667,26404,"Sudan","Northern"
"Presque Isle",46.79340863,-68.00216476,9466,"United States of America","Maine"
"Oranjestad",12.53038373,-70.02899195,50887.5,"Aruba",""
"Mankato",44.16362083,-93.99915674,45731.5,"United States of America","Minnesota"
"Brownsville",25.91997988,-97.50000248,174707,"United States of America","Texas"
"Ponte Nova",-20.40962116,-42.8999502,40377,"Brazil","Minas Gerais"
"El Dorado",6.733295714,-61.6333287,2383,"Venezuela","Bolívar"
"Tsavo",-2.982777894,38.46663367,414,"Kenya","Coast"
"Zholymbet",51.75023785,71.70987585,3969,"Kazakhstan","Aqmola"
"Joacaba",-27.17003538,-51.4999679,31196,"Brazil","Santa Catarina"
"El Manaqil",14.2503821,32.97999182,140062,"Sudan","Gezira"
"Morrinhos",-17.73004311,-49.10998458,27841,"Brazil","Goiás"
"Tuy Hoa",13.08200402,109.3159987,69596,"Vietnam","Phú Yên"
"Bafwasende",1.083847269,27.26659379,149,"Congo (Kinshasa)","Orientale"
"Yefremov",53.14911888,38.12153845,44933,"Russia","Tula"
"Conceicao do Araguaia",-8.250001608,-49.29002527,27115,"Brazil","Pará"
"Pago Pago",-14.2766105,-170.7066451,12038,"American Samoa",""
"Andorra",42.50000144,1.516485961,38127,"Andorra",""
"Wuppertal",51.25000999,7.169991006,562997.5,"Germany","Nordrhein-Westfalen"
"Cliza",-17.58999998,-65.9299915,12235,"Bolivia","Cochabamba"
"Mirput Khas",25.53178652,69.01179765,286046,"Pakistan","Sind"
"La Crosse",43.80136904,-91.23942855,69599.5,"United States of America","Wisconsin"
"Toconao",-23.18288857,-68.01663416,378,"Chile","Antofagasta"
"Dibaya",-6.509539369,22.87001461,603,"Congo (Kinshasa)","Kasaï-Occidental"
"Moosonee",51.28060244,-80.65798141,1725,"Canada","Ontario"
"Lusaka",-15.41664427,28.28332759,1297720,"Zambia","Lusaka"
"Sicuani",-14.28958128,-71.22997807,20924.5,"Peru","Cusco"
"Qoqon",40.54040529,70.94000037,271250,"Uzbekistan","Ferghana"
"Zvishavane",-20.32957436,30.04998979,34557.5,"Zimbabwe","Midlands"
"Muineachan",54.25,-6.9666667,5937,"Ireland","Monaghan"
"Toulon",43.13418645,5.918821566,263197,"France","Provence-Alpes-Côte-d'Azur"
"Tsetserleg",47.47688112,101.4501794,18056,"Mongolia","Arhangay"
"Nuqui",5.685180092,-77.27454844,1487,"Colombia","Chocó"
"Krasino",70.73144845,54.420799,10,"Russia","Arkhangel'sk"
"Chiquimula",14.79699906,-89.54399653,41521,"Guatemala","Chiquimula"
"Baoshan",25.11997703,99.15000972,925000,"China","Yunnan"
"Aboisso",5.466699052,-3.20000353,37654,"Ivory Coast","Sud-Comoé"
"Gdynia",54.52037884,18.53002112,284197,"Poland","Pomeranian"
"Hakodate",41.79497988,140.7399776,289357,"Japan","Hokkaido"
"Taedong",40.61709312,125.4501098,1884,"North Korea","P'yongan-bukto"
"Aldama",22.92042137,-98.06996769,11367,"Mexico","Tamaulipas"
"Ouahigouya",13.5704236,-2.419992108,70300,"Burkina Faso","Yatenga"
"Winslow",35.28470542,-110.7006954,9931,"United States of America","Arizona"
"Hagerstown",39.64164878,-77.72027958,58487.5,"United States of America","Maryland"
"Togiak",59.07036101,-160.3783234,236,"United States of America","Alaska"
"Sohano",-5.429742201,154.6711375,2338,"Papua New Guinea","North Solomons"
"Ostrava",49.83035504,18.24998653,396025.5,"Czech Republic","Moravskoslezský"
"Bechar",31.61110537,-2.230003704,142415.5,"Algeria","Béchar"
"Santiago del Estero",-27.78333128,-64.26665633,317549.5,"Argentina","Santiago del Estero"
"Labe",11.31999249,-12.3000092,99612,"Guinea","Labe"
"Rosso",16.52401593,-15.81266301,47203,"Mauritania","Trarza"
"Puerto Quijarro",-17.77960081,-57.77002446,10392,"Bolivia","Santa Cruz"
"Prachuap Khiri Khan",11.80299605,99.80000169,33521,"Thailand","Prachuap Khiri Khan"
"Obninsk",55.08044802,36.62002803,66236,"Russia","Kaluga"
"Changzhi",36.18387534,113.1052819,706000,"China","Shanxi"
"Purnia",25.78541445,87.4799727,198453,"India","Bihar"
"Dourados",-22.23002684,-54.80999841,144743.5,"Brazil","Mato Grosso do Sul"
"Asahikawa",43.75501528,142.3799808,341079.5,"Japan","Hokkaido"
"Kelowna",49.89998903,-119.4833118,110207.5,"Canada","British Columbia"
"Karusi",-3.099995968,30.16299648,10705,"Burundi","Karuzi"
"Belabo",4.933689798,13.30000443,11455.5,"Cameroon","Est"
"Singida",-4.81961668,34.74003943,47749.5,"Tanzania","Singida"
"Huangshi",30.22000165,115.0999922,688090,"China","Hubei"
"Freetown",8.470011412,-13.23421574,420384,"Sierra Leone","Western"
"Yeniseysk",58.4515084,92.15653479,15407.5,"Russia","Krasnoyarsk"
"Makamba",-4.133303903,29.79999964,19642,"Burundi","Makamba"
"Inverness",57.46712404,-4.23326644,42956.5,"United Kingdom","Highland"
"Hathras",27.59998069,78.05000565,126882,"India","Uttar Pradesh"
"Maun",-19.98959511,23.42000688,47059,"Botswana","North-West"
"Shu",43.59525759,73.74484208,41112,"Kazakhstan","Zhambyl"
"Mango",10.35956016,0.470813353,40187,"Togo","Savanes"
"Lisbon",38.72272288,-9.144866305,1664901,"Portugal","Lisboa"
"Dawwah",20.63301577,58.90802161,1485.5,"Oman","Ash Sharqiyah"
"Sambalpur",21.47040651,83.97005774,236869.5,"India","Orissa"
"Temple",31.10209251,-97.36300826,58432,"United States of America","Texas"
"Jyekundo",33.01662681,96.73330969,16500,"China","Gansu"
"Charlottetown",46.24928164,-63.13132512,36847.5,"Canada","Prince Edward Island"
"Puch'on",37.4988889,126.7830556,866000,"South Korea","Gyeonggi-do"
"Wamba",2.140423603,27.98996049,82122,"Congo (Kinshasa)","Orientale"
"Camargo",-20.63958128,-65.20998377,4715,"Bolivia","Chuquisaca"
"Palmeira dos Indios",-9.416597067,-36.61663863,41095,"Brazil","Alagoas"
"Puerto Cabello",10.47043194,-68.17000981,174000,"Venezuela","Carabobo"
"Mbale",1.090410175,34.1699967,247084,"Uganda","Bungokho"
"Anaco",9.440003885,-64.4600037,100118,"Venezuela","Anzoátegui"
