"city","latitude","longitude","population","country","province"
"Aurangabad",24.7704118,84.38000688,95929,"India","Bihar"
"Combarbala",-31.18002317,-70.99999211,5134,"Chile","Coquimbo"
"Idlib",35.92970481,36.63165523,115785.5,"Syria","Idlib"
"Elephant Island, South Shetland Islands",-61.99958901,-57.99998458,3,"Antarctica",""
"Songea",-10.68003416,35.65000972,120923,"Tanzania","Ruvuma"
"Kavalerovo",44.27020347,135.0497823,17801,"Russia","Primor'ye"
"Brisbane",-27.45503091,153.0350927,1393176.5,"Australia","Queensland"
"Braila",45.29199615,27.96900354,213569,"Romania","Braila"
"Krakow",50.05997927,19.96001135,755525,"Poland","Lesser Poland"
"Hot Springs",34.50395205,-93.05500248,40826,"United States of America","Arkansas"
"Cardiff",51.49999473,-3.22500757,603750,"United Kingdom","Cardiff"
"Toconao",-23.18288857,-68.01663416,378,"Chile","Antofagasta"
"Mekele",13.49998863,39.46998328,95856,"Ethiopia","Tigray"
"Lawrence",38.95975242,-95.25522994,88020,"United States of America","Kansas"
"Nauta",-4.570019512,-73.78002914,2308.5,"Peru","Loreto"
"Pardubice",50.04041974,15.76000932,97902.5,"Czech Republic","Královéhradecký"
"Rijeka",45.32998374,14.45001176,156082,"Croatia","Primorsko-Goranska"
"Raba",-8.449989401,118.7666418,106101,"Indonesia","Nusa Tenggara Barat"
"Breves",-1.680015036,-50.4900037,46818.5,"Brazil","Pará"
"Ponce",18.00038576,-66.61664209,156484,"Puerto Rico",""
"Nefteyugansk",61.07765301,72.70268347,112632,"Russia","Khanty-Mansiy"
"Boorama",9.940412617,43.18004106,67664,"Somaliland",""
"Levin",-40.61236733,175.2772493,18764,"New Zealand","Manawatu-Wanganui"
"Tieli",46.95037579,128.0500028,109228.5,"China","Heilongjiang"
"Batman",37.89041201,41.14001054,276337.5,"Turkey","Batman"
"Haora",22.58039044,88.32994665,2934655,"India","West Bengal"
"Signy Island",-60.63130815,-45.60070332,4,"Antarctica",""
"Ha Giang",22.83365664,104.9833488,35526,"Vietnam","Hà Giang"
"Hims",34.72995892,36.72002193,890202,"Syria","Homs (Hims)"
"Pakwach",2.470377623,31.47998002,17541,"Uganda","Nebbi"
"Masjed Soleyman",31.97999758,49.2999259,132586.5,"Iran","Khuzestan"
"Cam Pha",21.04043276,107.320002,75925.5,"Vietnam","Quảng Ninh "
"Sungaipenuh",-2.063144105,101.3964359,56773,"Indonesia","Jambi"
"Timisoara",45.75882062,21.22344844,309575,"Romania","Timis"
"Sassandra",4.950381286,-6.083282716,30842.5,"Ivory Coast","Bas-Sassandra"
"Focsani",45.69655052,27.186547,92636.5,"Romania","Vrancea"
"Mostaganem",35.940376,0.089983885,159177,"Algeria","Mostaganem"
"Barretos",-20.55002602,-48.58001693,97562,"Brazil","São Paulo"
"Hinton",53.39998212,-117.5833503,10077,"Canada","Alberta"
"Kattaqorgon",39.90070274,66.2607511,153247.5,"Uzbekistan","Samarkand"
"Qusmuryn",52.45799827,64.59997392,4345.5,"Kazakhstan","Qostanay"
"Tozeur",33.93042116,8.129984089,37223.5,"Tunisia","Tozeur"
"Juiz de Fora",-21.77000324,-43.3749858,464764.5,"Brazil","Minas Gerais"
"Kabwe",-14.44001137,28.44998409,188667,"Zambia","Central"
"Ramallah",31.90294475,35.20620938,24599,"Palestine",""
"Kasongo-Lunda",-6.479618715,16.82996985,18748,"Congo (Kinshasa)","Bandundu"
"Puerto Lopez",4.089994526,-72.96002751,12163.5,"Colombia","Meta"
"Ifakara",-8.129595521,36.68002437,27929.5,"Tanzania","Morogoro"
"La Rochelle",46.16665102,-1.149992108,76903.5,"France","Poitou-Charentes"
"Brainerd",46.35800885,-94.20084986,21202.5,"United States of America","Minnesota"
"Cairns",-16.88783986,145.7633309,132107,"Australia","Queensland"
"Numan",9.460441914,12.04002966,45173,"Nigeria","Adamawa"
"Phrae",18.15329632,100.1629195,28254.5,"Thailand","Phrae"
"Huinan",42.62293968,126.2614298,43261.5,"China","Jilin"
"Ciudad Constitucion",25.04000775,-111.6599909,37605.5,"Mexico","Baja California Sur"
"Az Aubayr",30.38916445,47.70798173,192447.5,"Iraq","Al-Basrah"
"Wausau",44.95915367,-89.6299919,56100.5,"United States of America","Wisconsin"
"Bogande",12.96900003,-0.1379965,9854,"Burkina Faso","Gnagna"
"Oslo",59.91669029,10.74997921,707500,"Norway","Oslo"
"Witu",-2.379610576,40.43002803,3945,"Kenya","Coast"
"Jiaojing",28.6804057,121.4499922,471152,"China","Zhejiang"
"Novi Sad",45.2503762,19.84994055,220428.5,"Serbia","Južno-Backi"
"Mednogorsk",51.41912111,57.57874874,27274,"Russia","Orenburg"
"Queenstown",-42.08292356,145.5500199,1658,"Australia","Tasmania"
"San Ramon",-11.12961912,-75.34001144,10599,"Peru","Junín"
"Kuruman",-27.4495532,23.42000688,9549.5,"South Africa","Northern Cape"
"Usolye Sibirskoye",52.76498212,103.6449808,85012,"Russia","Irkutsk"
"Spencer",43.14528505,-95.14717452,10938.5,"United States of America","Iowa"
"Coban",15.46999758,-90.3799978,59284.5,"Guatemala","Alta Verapaz"
"Tehran",35.67194277,51.42434403,7513154.5,"Iran","Tehran"
"Vung Tau",10.35537437,107.0849776,229225,"Vietnam","Bà Rịa–Vũng Tàu "
"Harrisburg",40.27359987,-76.88474919,289210,"United States of America","Pennsylvania"
"Sekondi",4.943275776,-1.704015138,212560,"Ghana","Western"
"Drohobych",49.34436403,23.49938188,101837.5,"Ukraine","L'viv"
"Kuybyshevskiy",37.97939882,68.68897497,8925,"Tajikistan","Khatlon"
"Nyukzha",56.53121218,121.613083,10,"Russia","Amur"
"Bowling Green",36.99069948,-86.44364893,61349,"United States of America","Kentucky"
"Vernal",40.45539756,-109.5280022,11175.5,"United States of America","Utah"
"Kikwit",-5.030043112,18.85000159,465973,"Congo (Kinshasa)","Bandundu"
"Repulse Bay",66.52946689,-86.28293502,874,"Canada","Nunavut"
"Kedougou",12.56043357,-12.17999068,18074,"Senegal","Tambacounda"
"Braga",41.55499453,-8.421331219,504326,"Portugal","Braga"
"Ust Maya",60.45657981,134.5433016,3062,"Russia","Sakha (Yakutia)"
"Roxas",11.58527346,122.7511014,91880.5,"Philippines","Capiz"
"Abbottabad",34.1495034,73.19950069,1032323.5,"Pakistan","N.W.F.P."
"Americana",-22.74994342,-47.32998987,337747,"Brazil","São Paulo"
"Ye",15.25326662,97.86786576,50798,"Myanmar","Mon"
"Ulm",48.40039064,9.999999144,146703,"Germany","Baden-Württemberg"
"Kuopio",62.89428632,27.69493974,90502,"Finland","Eastern Finland"
"Sikonge",-5.629541403,32.77003048,14549.5,"Tanzania","Tabora"
"Naberezhnyye Chelny",55.69999676,52.31994828,461086,"Russia","Tatarstan"
"Linqing",36.85039797,115.6800085,110046,"China","Hebei"
"Zhangzhou",24.52037539,117.6700162,2434799.5,"China","Fujian"
"Charters Towers",-20.08090737,146.2587105,8369.5,"Australia","Queensland"
"Alliance",42.10139528,-102.8701915,8269,"United States of America","Nebraska"
"Koblenz",50.35047833,7.599990599,209976,"Germany","Rheinland-Pfalz"
"Jacksonville",34.75432436,-77.43055567,72651.5,"United States of America","North Carolina"
"Ahuachapan",13.91900399,-89.84500155,34102,"El Salvador","Ahuachapán"
"Ust Nera",64.56658734,143.1999825,9148,"Russia","Sakha (Yakutia)"
"Krasnoyarsk",56.01398277,92.86600053,613605,"Russia","Krasnoyarsk"
