"city","latitude","longitude","population","country","province"
"Jamalpur",24.90042971,89.95000281,167900,"Bangladesh","Dhaka"
"Al Hillah",32.47213808,44.42172237,479652.5,"Iraq","Babil"
"Uitenhage",-33.75960732,25.39001583,217839,"South Africa","Eastern Cape"
"Mpwapwa",-6.349600811,36.4799849,10093.5,"Tanzania","Dodoma"
"Nazyvayevsk",55.56695579,71.35000118,10938.5,"Russia","Omsk"
"Cabimas",10.42999514,-71.44999048,320956,"Venezuela","Trujillo"
"Tecuala",22.40042727,-105.4599817,12752,"Mexico","Nayarit"
"Nagoya",35.15499758,136.9149914,2710639.5,"Japan","Aichi"
"Choele Choel",-39.26660968,-65.68331405,9895.5,"Argentina","Río Negro"
"Visby",57.63365135,18.30000932,22281.5,"Sweden","Gotland"
"Camabatela",-8.189591859,15.37000728,12731,"Angola","Cuanza Norte"
"Nimule",3.599998595,32.05002274,242,"South Sudan","East Equatoria"
"Clarksville",36.5300816,-87.35943282,122115,"United States of America","Tennessee"
"Hafar al Batin",28.43365074,45.96007808,249194,"Saudi Arabia","Ash Sharqiyah"
"Sheberghan",36.65798077,65.73830237,74441,"Afghanistan","Jawzjan"
"Bacau",46.57843467,26.91963822,185532,"Romania","Bacau"
"Goldsboro",35.38513857,-77.99305363,42922.5,"United States of America","North Carolina"
"Kineshma",57.46996625,42.12997595,91874,"Russia","Ivanovo"
"Solwezi",-12.17958087,26.39998002,51793.5,"Zambia","North-Western"
"Vichuga",57.21912884,41.92874792,38093.5,"Russia","Ivanovo"
"Dumas",35.86239626,-101.9668875,13551.5,"United States of America","Texas"
"Cradock",-32.19954751,25.6100024,32898,"South Africa","Eastern Cape"
"Penedo",-10.26961994,-36.58002588,37515.5,"Brazil","Alagoas"
"Kingston",-42.99113686,147.3084139,12652,"Australia","Tasmania"
"Mirnyy",62.54001853,113.9613537,30535.5,"Russia","Sakha (Yakutia)"
"Proddatur",14.7504291,78.57002559,187624,"India","Andhra Pradesh"
"Pingtung",22.68170209,120.4816792,359752.5,"Taiwan","Pingtung"
"Ayaviri",-14.87957111,-70.59999068,12524.5,"Peru","Callao"
"Kasimov",54.9434538,41.39307003,36009,"Russia","Ryazan'"
"London",42.9699986,-81.24998661,340900,"Canada","Ontario"
"Lubeck",53.87039268,10.66998409,223798.5,"Germany","Schleswig-Holstein"
"Atamyrat",37.82480878,65.19973059,32205,"Turkmenistan","Chardzhou"
"Welkom",-27.96998655,26.72998572,279011.5,"South Africa","Orange Free State"
"Neuquen",-38.95003986,-68.05999068,213823.5,"Argentina","Neuquén"
"Baotou",40.65220725,109.8220198,1229664.5,"China","Nei Mongol"
"Houston",29.81997438,-95.33997929,4053287,"United States of America","Texas"
"Manicore",-5.812165915,-61.29748356,17802,"Brazil","Amazonas"
"Mansa",-11.20000242,28.89000891,31357,"Zambia","Luapula"
"Ilave",-16.07960122,-69.66999577,16033,"Peru","Callao"
"Kirovohrad",48.50405357,32.26029415,243573.5,"Ukraine","Kirovohrad"
"Caen",49.18375368,-0.349989259,150361.5,"France","Basse-Normandie"
"Shishou",29.70039512,112.400002,177099,"China","Hubei"
"Libreville",0.38538861,9.457965046,530755.5,"Gabon","Estuaire"
"Radisson",53.78362795,-77.61656498,270,"Canada","Québec"
"Prachin Buri",14.0572156,101.3767989,56178.5,"Thailand","Prachin Buri"
"Greensboro",36.07000633,-79.80002344,310328,"United States of America","North Carolina"
"Phyarpon",16.29325482,95.68288285,63177,"Myanmar","Ayeyarwady"
"Campeche",19.82998985,-90.49999048,204048.5,"Mexico","Campeche"
"Pueblo",38.2803882,-104.6300066,108244,"United States of America","Colorado"
"San Ignacio",-16.36960936,-60.96001062,24480,"Bolivia","Santa Cruz"
"Cao Lanh",10.46700013,105.6359976,149837,"Vietnam","Đồng Tháp "
"Belleville",44.16666974,-77.38334924,43990,"Canada","Ontario"
"Zhangaozen",43.30039187,52.80002234,8895,"Kazakhstan","Mangghystau"
"Brochet",57.88322268,-101.6665957,278,"Canada","Manitoba"
"Quesada",10.33049217,-84.43997278,29208,"Costa Rica","Alajuela"
"Rocky Mount",35.93799888,-77.79076624,57179,"United States of America","North Carolina"
"Kirkwall",58.96698081,-2.950011435,5826.5,"United Kingdom","Moray"
"Jefferson City",38.57662335,-92.17332503,45511,"United States of America","Missouri"
"Dombarovskiy",50.75458803,59.54002437,5564,"Russia","Orenburg"
"Jaipur",26.92113324,75.80998734,2814379,"India","Rajasthan"
"Kanazawa",36.56000226,136.6400211,505093,"Japan","Ishikawa"
"Moab",38.57370363,-109.5491895,5309,"United States of America","Utah"
"Ligonha",-15.17567706,37.74001135,3310.5,"Mozambique","Nampula"
"Isfahan",32.70000531,51.7000378,1572883,"Iran","Esfahan"
"Paragominas",-2.959575176,-47.49000594,38095.5,"Brazil","Pará"
"Fond du Lac",43.77343793,-88.44691166,48079.5,"United States of America","Wisconsin"
"Ajaccio",41.92706484,8.728293822,46905,"France","Corse"
"Hanoi",21.03332725,105.8500142,2904635,"Vietnam","Thái Nguyên"
"Manta",-0.980006084,-80.72996668,176941,"Ecuador","Manabi"
"Vorontsovo",71.69832257,83.56419104,100,"Russia","Taymyr"
"Sayanogorsk",53.0894326,91.40040523,52790.5,"Russia","Krasnoyarsk"
"Korla",41.72999676,86.15002803,192919,"China","Xinjiang Uygur"
"Laredo",27.50613629,-99.50721847,322768.5,"United States of America","Texas"
"Phatthalung",7.61499898,100.0809996,43522,"Thailand","Phatthalung"
"Bade",24.9575,121.2988889,172065,"Taiwan","Taoyuan"
"Chicago",41.82999066,-87.75005497,5915976,"United States of America","Illinois"
"Villalonga",-39.88285114,-62.58332239,2838,"Argentina","Ciudad de Buenos Aires"
"Bambari",5.761959655,20.66720333,47322.5,"Central African Republic","Ouaka"
"Choluteca",13.30067263,-87.19081262,87650.5,"Honduras","Choluteca"
"Umm al Qaywayn",25.56527285,55.55334265,38531,"United Arab Emirates","Umm Al Qaywayn"
"Ruzayevka",54.06433433,44.92437903,44635,"Russia","Mordovia"
"Harper",4.375377623,-7.716981447,25249,"Liberia","Maryland"
"Kibaha",-6.766703953,38.9167026,23651,"Tanzania","Pwani"
"Uray",60.14013918,64.75479651,20361,"Russia","Khanty-Mansiy"
"Yerema",60.38079632,107.7794055,745,"Russia","Irkutsk"
"Altoona",40.51859784,-78.39496708,62784.5,"United States of America","Pennsylvania"
"Columbus",32.47043276,-84.98001734,202225,"United States of America","Georgia"
"Kohima",25.6669979,94.11657019,92113,"India","Nagaland"
"Muyinga",-2.852346579,30.31726029,71076,"Burundi","Muyinga"
"Tongling",30.95044802,117.7800354,437710,"China","Anhui"
"Warri",5.519958922,5.759999551,683064.5,"Nigeria","Delta"
"Xuzhou",34.28001223,117.1800203,1645096.5,"China","Jiangsu"
"Queenstown",-42.08292356,145.5500199,1658,"Australia","Tasmania"
"Schenectady",42.81458173,-73.93996769,104767.5,"United States of America","New York"
"Kragujevac",44.01996035,20.92000443,159335,"Serbia","Šumadijski"
"Veinticinco de Mayo",-35.42999632,-60.17998071,18749,"Argentina","Ciudad de Buenos Aires"
"Unalakleet",63.87342552,-160.7880516,741,"United States of America","Alaska"
"Peto",20.12997154,-88.91998356,12924,"Mexico","Yucatán"
"Andijon",40.79000246,72.33996659,486950,"Uzbekistan","Andijon"
"Natchez",31.55480389,-91.38750737,20490.5,"United States of America","Mississippi"
