"city","latitude","longitude","population","country","province"
"San Pedro de Macoris",18.4503583,-69.29996668,211019.5,"Dominican Republic","San Pedro de Macorís"
"Benton Harbor",42.11663983,-86.45419092,34637.5,"United States of America","Michigan"
"Salinas",-2.200034974,-80.98000309,24616.5,"Ecuador","Guayas"
"Guanhaes",-18.78000486,-42.95002466,16761.5,"Brazil","Minas Gerais"
"Kerch",45.36850852,36.4880981,133972,"Ukraine","Crimea"
"Bacabal",-4.229988588,-44.79998926,57296.5,"Brazil","Maranhão"
"Piatra-Neamt",46.94000405,26.38299657,102688,"Romania","Neamt"
"Brookings",44.30676455,-96.78803044,20313.5,"United States of America","South Dakota"
"Frias",-28.64958331,-65.14998743,13594,"Argentina","Santiago del Estero"
"Djelfa",34.67998781,3.250023558,170901,"Algeria","Djelfa"
"Vijayawada",16.51995933,80.63000321,1005793.5,"India","Andhra Pradesh"
"Butterworth",5.417071146,100.4000109,464621.5,"Malaysia","Pulau Pinang"
"Granja",-3.119513734,-40.83999841,17233,"Brazil","Ceará"
"Baraki Barak",33.9667021,68.96670354,22305,"Afghanistan","Logar"
"Surin",14.88682904,103.4914502,54604.5,"Thailand","Surin"
"Formosa",-26.17283527,-58.1828158,202272,"Argentina","Formosa"
"San Carlos",10.55037539,123.3800036,6353,"Philippines","Negros Occidental"
"Piedras Negras",28.70763918,-100.5316521,137295,"Mexico","Coahuila"
"Sikasso",11.3204059,-5.679999839,185269.5,"Mali","Sikasso"
"Erseke",40.33330213,20.68329651,7890,"Albania","Korçë"
"Akhtubinsk",48.27871848,46.16869584,38179,"Russia","Astrakhan'"
"Allanmyo",19.37831199,95.22792354,48446.5,"Myanmar","Magway"
"Lemosos",34.67541445,33.0333219,149486,"Cyprus","Limassol"
"Ujjain",23.19040489,75.79004024,485348,"India","Madhya Pradesh"
"Florianopolis",-27.57998452,-48.52002059,568783,"Brazil","Santa Catarina"
"Dunhuang",40.14267763,94.66201493,139225,"China","Gansu"
"Kochi",10.01500755,76.22391557,1061848,"India","Kerala"
"Victoria",-32.61001341,-60.17998071,20032.5,"Argentina","Entre Ríos"
"Oviedo",43.35049217,-5.829990683,223524.5,"Spain","Principado de Asturias"
"Ogbomosho",8.130006326,4.239988972,595063.5,"Nigeria","Oyo"
"Norseman",-32.20001259,121.7666137,1004,"Australia","Western Australia"
"Uummannaq",70.67502343,-52.12293443,1299,"Greenland",""
"Kirsanov",52.65739178,42.71743363,17001,"Russia","Tambov"
"Kandy",7.279980691,80.67000077,111701,"Sri Lanka","Kandy"
"San Juan del Sur",11.24999676,-85.86004114,5032,"Nicaragua","Nicaragua"
"Binjai",3.620359109,98.50007524,405494.5,"Indonesia","Sumatera Utara"
"Guliston",40.49573102,68.79072587,74446.5,"Uzbekistan","Sirdaryo"
"Tarragona",41.12036989,1.249990599,107957.5,"Spain","Cataluña"
"Paracatu",-17.19958453,-46.86999211,51673.5,"Brazil","Minas Gerais"
"Taksimo",56.33153444,114.8899792,10359,"Russia","Buryat"
"Elk",53.83370241,22.34999467,51312.5,"Poland","Warmian-Masurian"
"Porto Uniao",-26.23960122,-51.07996769,50242.5,"Brazil","Santa Catarina"
"Al Jaghbub",29.75039207,24.51658077,1744,"Libya","Al Butnan"
"Oguz",41.0708333,47.4583333,6876,"Azerbaijan","Oguz"
"Francistown",-21.17003986,27.50001623,89179.5,"Botswana","Central"
"Kohat",33.60268923,71.43268347,247227,"Pakistan","N.W.F.P."
"Numto",63.66671979,71.33330969,10,"Russia","Khanty-Mansiy"
"Peterborough",44.29996909,-78.33326542,79752,"Canada","Ontario"
"Gitega",-3.426006654,29.84359411,23167,"Burundi","Muramvya"
"Gingin",-31.34957355,115.9000468,1446,"Australia","Western Australia"
"An Nasiriyah",31.04294883,46.26755286,425898,"Iraq","Dhi-Qar"
"Longjiang",47.34040367,123.1800158,87115,"China","Heilongjiang"
"Navajoa",27.08189862,-109.4546216,116093,"Mexico","Sonora"
"Malindi",-3.209999167,40.10002234,81160,"Kenya","Coast"
"El Fasher",13.62998069,25.35001827,220906,"Sudan","Northern Darfur"
"Des Moines",41.57998008,-93.61998092,286917.5,"United States of America","Iowa"
"Jaboticabal",-21.25003497,-48.32998051,60780.5,"Brazil","São Paulo"
"Bengkulu",-3.800040671,102.2699743,368192.5,"Indonesia","Bengkulu"
"Leticia",-4.220015036,-69.93997929,46012.5,"Colombia","Amazonas"
"Lander",42.83300437,-108.7325985,6742,"United States of America","Wyoming"
"Yibin",28.7699868,104.5700406,572055.5,"China","Sichuan"
"Craig",40.51728009,-107.5503968,9315.5,"United States of America","Colorado"
"Flint",43.0128642,-83.68753809,206235,"United States of America","Michigan"
"Prachin Buri",14.0572156,101.3767989,56178.5,"Thailand","Prachin Buri"
"Kenge",-4.829590231,16.89993974,241,"Congo (Kinshasa)","Bandundu"
"Magong",23.56666667,119.5833333,56435,"Taiwan","Penghu"
"Springfield",44.05194806,-122.9780339,55531.5,"United States of America","Oregon"
"Miami Beach",25.80991953,-80.13178111,248538,"United States of America","Florida"
"Ely",47.90042116,-91.82569767,3687,"United States of America","Minnesota"
"Manacapuru",-3.289580873,-60.6199797,55780.5,"Brazil","Amazonas"
"Kuznetsk",53.12041262,46.59998734,93027,"Russia","Penza"
"Tulsa",36.12000327,-95.93002079,669434,"United States of America","Oklahoma"
"Maoming",21.92040489,110.8700179,1217715,"China","Guangdong"
"Satun",6.616701099,100.0666986,34544,"Thailand","Satun"
"Sotik",-0.679559307,35.12001623,36942.5,"Kenya","Rift Valley"
"Rreshen",41.78330106,19.81670459,10064,"Albania","Lezhë"
"Kumi",1.4608333,33.9361111,13000,"Uganda","Kumi"
"Invercargill",-46.40942951,168.3650097,37135.5,"New Zealand","Southland"
"Chalatenango",14.07200406,-89.09399649,29271,"El Salvador","Chalatenango"
"Rostov",57.18915651,39.40430253,33578,"Russia","Yaroslavl'"
"Verkhniy Ufaley",56.06627932,60.23130001,33562,"Russia","Chelyabinsk"
"Kangirsuk",60.02482322,-69.99909713,549,"Canada","Québec"
"Rajapalaiyam",9.420392679,77.5800085,338975,"India","Tamil Nadu"
"New Haven",41.33038291,-72.90000533,707883,"United States of America","Connecticut"
"Slobozia",44.56999806,27.38199659,52693,"Romania","Ialomita"
"San Borja",-14.81962645,-66.84996118,19640,"Bolivia","El Beni"
"Ayr",-19.57024087,147.3994677,7166,"Australia","Queensland"
"Chivilcoy",-34.89995115,-60.03998926,43719,"Argentina","Ciudad de Buenos Aires"
"Inverness",57.46712404,-4.23326644,42956.5,"United Kingdom","Highland"
"Oktyabrskiy",52.66359296,156.2387215,67386,"Russia","Kamchatka"
"General Eugenio Alejandrino Garay",-20.51995034,-62.209986,972,"Paraguay","Boquerón"
"Kumertau",52.7747748,55.7843363,48667.5,"Russia","Bashkortostan"
"Sunchon",39.42360008,125.9389689,400629,"North Korea","P'yongan-namdo"
"Gyor",47.70035585,17.63002437,132173,"Hungary","Gyor-Moson-Sopron"
"Oulu",64.99999758,25.47001094,132685,"Finland","Northern Ostrobothnia"
"Hutchinson",38.06549176,-97.92349085,42536.5,"United States of America","Kansas"
"Rothera Station",-67.5647756,-68.12354055,76,"Antarctica",""
"Butuan",8.949542866,125.5435925,190557,"Philippines","Agusan del Norte"
"Aurangabad",19.89569643,75.32030147,1064720.5,"India","Maharashtra"
"Tours",47.38037539,0.699946654,188858.5,"France","Centre"
