"city","latitude","longitude","population","country","province"
"Donegal",54.65000917,-8.116672812,2229,"Ireland","Donegal"
"Tessalit",20.20138837,1.088811807,5869.5,"Mali","Kidal"
"Leon",21.1499868,-101.7000304,1301313,"Mexico","Guanajuato"
"Tel Aviv-Yafo",32.07999147,34.77001176,1745179,"Israel","Tel Aviv"
"Coban",15.46999758,-90.3799978,59284.5,"Guatemala","Alta Verapaz"
"Gunnison",38.54476483,-106.92829,6273,"United States of America","Colorado"
"Tulcan",0.821997038,-77.73200048,83000,"Ecuador","Carchi"
"Jining",41.02998781,113.0800122,270236.5,"China","Nei Mongol"
"Chester",53.20002016,-2.919987428,83285.5,"United Kingdom","Cheshire"
"Sasebo",33.1631295,129.7177046,224347.5,"Japan","Nagasaki"
"Slyudyanka",51.65383547,103.6988277,14920.5,"Russia","Irkutsk"
"Altay",47.86659894,88.11662634,140670.5,"China","Xinjiang Uygur"
"Zacatecoluca",13.508001,-88.86799761,39613,"El Salvador","La Paz"
"Tucano",-10.96962889,-38.78999435,16199,"Brazil","Bahia"
"Yarumal",7.030590229,-75.5904871,35315,"Colombia","Antioquia"
"Kamloops",50.66666058,-120.3332858,68671,"Canada","British Columbia"
"Eldoret",0.520005716,35.26998124,285913.5,"Kenya","Rift Valley"
"Huehuetenango",15.32039431,-91.46998295,82709,"Guatemala","Huehuetenango"
"Ufa",54.78997479,56.04003129,969378,"Russia","Bashkortostan"
"Kerma",19.63369692,30.4165824,3928,"Sudan","Northern"
"Sierra Colorado",-40.58286009,-67.79998071,1522,"Argentina","Río Negro"
"Taipei",25.03583333,121.5683333,4759522.5,"Taiwan","Taipei City"
"Kindersley",51.46697349,-109.1332976,4316,"Canada","Saskatchewan"
"Kimba",-33.14961871,136.4333671,636,"Australia","South Australia"
"Trofimovsk",72.59968874,127.0336824,10,"Russia","Sakha (Yakutia)"
"Sotik",-0.679559307,35.12001623,36942.5,"Kenya","Rift Valley"
"Wakayama",34.22311647,135.1677079,395503,"Japan","Wakayama"
"Kaunas",54.95040428,23.88003048,363844.5,"Lithuania","Kauno"
"Vera",-29.4661743,-60.21659347,9979,"Argentina","Santa Fe"
"Catio",11.21670002,-15.16670049,9898,"Guinea Bissau","Tombali"
"Montepuez",-13.11957518,39.0000378,49041,"Mozambique","Cabo Delgado"
"Mufulira",-12.54999754,28.25996985,137062,"Zambia","Copperbelt"
"Blenheim",-41.52099404,173.9592419,23056.5,"New Zealand","Marlborough"
"Ozamis",8.146206888,123.8444197,95444,"Philippines","Misamis Occidental"
"Blantyre",-15.79000649,34.98994665,584877,"Malawi","Blantyre"
"Moroto",2.540347513,34.63999385,371,"Uganda","Moroto"
"Jessore",23.17043194,89.19997107,243987,"Bangladesh","Khulna"
"Cabinda",-5.55962319,12.18999467,78905.5,"Angola","Cabinda"
"Fort Lauderdale",26.13606488,-80.14178552,1103781.5,"United States of America","Florida"
"Jingmen",31.03039146,112.1000203,4e+05,"China","Hubei"
"Philadelphia",39.99997316,-75.16999597,3504775,"United States of America","Pennsylvania"
"Valparai",10.32041526,76.96996822,102330.5,"India","Tamil Nadu"
"Kibuye",-2.050001985,29.34999959,48024,"Rwanda","Western"
"Douala",4.060409769,9.709991006,1622041,"Cameroon","Littoral"
"Kuujjuarapik",55.28149518,-77.76583236,1243,"Canada","Québec"
"St.-Denis",-20.87889484,55.44807776,163621,"France","La Réunion"
"Naryn",41.42634605,75.99106156,44003.5,"Kyrgyzstan","Naryn"
"Waycross",31.21381695,-82.35490625,17445.5,"United States of America","Georgia"
"Sumy",50.92429344,34.78086381,289801,"Ukraine","Sumy"
"Piracicaba",-22.70999754,-47.63999679,329530,"Brazil","São Paulo"
"Natal",-6.983825664,-60.26994938,980588,"Brazil","Amazonas"
"Indiga",67.68975404,49.01659483,10,"Russia","Nenets"
"Jinshi",29.63210472,111.851715,178453,"China","Hunan"
"Mazatlan",29.01710349,-110.1333399,469217,"Mexico","Sonora"
"Korhogo",9.459976826,-5.639950604,172535,"Ivory Coast","Savanes"
"Ukiah",39.15423667,-123.2108621,21826.5,"United States of America","California"
"Kotlit",63.03458783,-163.5532833,1002,"United States of America","Alaska"
"Cusco",-13.52502846,-71.97215499,336661,"Peru","Cusco"
"Takamatsu",34.34473696,134.044779,329861.5,"Japan","Kagawa"
"Valencia",10.22998151,-67.9800214,1569526.5,"Venezuela","Carabobo"
"Jauja",-11.79960407,-75.50002751,21057,"Peru","Junín"
"Palmeira dos Indios",-9.416597067,-36.61663863,41095,"Brazil","Alagoas"
"Nam Dinh",20.42003135,106.2000187,243186,"Vietnam","Nam Định "
"Nelspruit",-25.46962238,30.98001054,184839,"South Africa","Mpumalanga"
"Zholymbet",51.75023785,71.70987585,3969,"Kazakhstan","Aqmola"
"Muzaffarpur",26.12043276,85.37994584,333200,"India","Bihar"
"Trepassey",46.73697797,-53.36329085,398,"Canada","Newfoundland and Labrador"
"Kiama",-34.70957518,150.8400329,10379,"Australia","New South Wales"
"Abau",-10.04260537,148.5650297,230,"Papua New Guinea","Central"
"Fargo",46.8772278,-96.7894257,127472.5,"United States of America","North Dakota"
"Samut Prakan",13.60690716,100.6114709,388920,"Thailand","Samut Prakan"
"Sanming",26.2299868,117.5800476,104941.5,"China","Fujian"
"Craig",40.51728009,-107.5503968,9315.5,"United States of America","Colorado"
"Bhiwandi",19.35001914,73.12999589,751017.5,"India","Maharashtra"
"Potosi",-19.56956907,-65.75002832,160576,"Bolivia","Potosí"
"Greenville",35.61287661,-77.3666836,81661,"United States of America","North Carolina"
"Sinnamary",5.380019144,-52.95998214,2781.5,"France","Guinaa"
"Funtua",11.5203937,7.320007689,158643,"Nigeria","Katsina"
"Caruaru",-8.280025616,-35.98001083,238732.5,"Brazil","Pernambuco"
"Aliwal North",-30.68956216,26.71003861,26423,"South Africa","Eastern Cape"
"Turnovo",43.08624473,25.65552934,53115,"Bulgaria","Veliko Tarnovo"
"Maladzyechna",54.31878908,26.86532629,96055,"Belarus","Minsk"
"Udachnyy",66.42316652,112.3965397,15266,"Russia","Sakha (Yakutia)"
"Chittagong",22.32999229,91.79996741,4224611,"Bangladesh","Chittagong"
"Ittoqqortoormiit",70.48335797,-21.9666543,469,"Greenland","Kommuneqarfik Sermersooq"
"Az Aubayr",30.38916445,47.70798173,192447.5,"Iraq","Al-Basrah"
"Butare",-2.589623597,29.73000932,77000,"Rwanda","Southern"
"Felipe Carrillo Puerto",19.58039268,-88.04998499,23958,"Mexico","Quintana Roo"
"Batouri",4.433694477,14.366606,42271,"Cameroon","Est"
"Tara",56.89824404,74.37824011,24130.5,"Russia","Omsk"
"Taza",34.22037762,-4.019971966,170761.5,"Morocco","Taza - Al Hoceima - Taounate"
"Lubeck",53.87039268,10.66998409,223798.5,"Germany","Schleswig-Holstein"
"Watertown",43.97515688,-75.91106185,30938,"United States of America","New York"
"Kyustendil",42.28427818,22.6911108,49676.5,"Bulgaria","Kyustendil"
"Port-Vila",-17.7333504,168.3166406,39970.5,"Vanuatu","Shefa"
"Mercedes",-33.68958576,-65.4699679,49345,"Argentina","San Luis"
"Ust Kamchatsk",56.21350547,162.4349841,4939,"Russia","Kamchatka"
"Komatipoort",-25.40957436,31.94000362,10333.5,"South Africa","Mpumalanga"
"Puerto Escondido",15.85918031,-97.06588835,15402.5,"Mexico","Oaxaca"
"Oymyakon",0,0,486,"Russia","Sakha (Yakutia)"
