"city","latitude","longitude","population","country","province"
"Thai Nguyen",21.59995933,105.8300154,415000,"Vietnam","Thái Nguyên"
"Tehuacan",18.4503583,-97.37998397,239370.5,"Mexico","Puebla"
"Zaragoza",41.65000165,-0.889982138,548955.5,"Spain","Aragón"
"Legazpi",13.16998293,123.7500069,320081,"Philippines","Albay"
"Laramie",41.31136599,-105.5905681,25587.5,"United States of America","Wyoming"
"Dalhart",36.06080792,-102.5186109,6763.5,"United States of America","Texas"
"Lingyuan",41.24,119.4011111,806000,"China","Liaoning"
"Tocantinopolis",-6.319576804,-47.41998438,8750,"Brazil","Tocantins"
"Kroonstad",-27.66003131,27.2100081,88413.5,"South Africa","Orange Free State"
"Sibay",52.70911989,58.63873572,54696,"Russia","Bashkortostan"
"Lakeville",44.65010276,-93.24251042,156151,"United States of America","Minnesota"
"Rajshahi",24.37498374,88.6050203,755066.5,"Bangladesh","Rajshahi"
"Al Qunaytirah",33.12566408,35.82359086,2235.5,"Syria","Golan"
"Vac",47.78365826,19.13324011,35200.5,"Hungary","Pest"
"Rayevskiy",54.06738324,54.92692094,13578.5,"Russia","Bashkortostan"
"Bella Union",-30.25961424,-57.59995732,17947,"Uruguay","Artigas"
"Fort Shevchenko",44.51706179,50.26663692,3236,"Kazakhstan","Mangghystau"
"Salt Lake City",40.7750163,-111.9300519,572013,"United States of America","Utah"
"Alpine",30.36071657,-103.6650009,6429.5,"United States of America","Texas"
"Ennadai",61.13328269,-100.883336,0,"Canada","Nunavut"
"Albany",-35.0169466,117.8916048,25179,"Australia","Western Australia"
"Whitehorse",60.71671897,-135.0499844,23274,"Canada","Yukon"
"La Paloma",-34.66999103,-54.1699858,2897,"Uruguay","Rocha"
"Muglad",11.03373089,27.73333533,17344,"Sudan","South Kordofan"
"Norfolk",42.02871238,-97.43359827,24562,"United States of America","Nebraska"
"Barcelos",-0.97499347,-62.92389592,9968.5,"Brazil","Amazonas"
"Gunnison",38.54476483,-106.92829,6273,"United States of America","Colorado"
"Guarapuava",-25.38001544,-51.48002079,123381.5,"Brazil","Paraná"
"Beihai",21.4804059,109.1000484,567289,"China","Guangxi"
"Alekseyevka",50.65348309,38.69307979,38633.5,"Russia","Belgorod"
"Rio Negro",-26.10002317,-49.79002059,44301.5,"Brazil","Paraná"
"Dabou",5.320358703,-4.389949383,71287,"Ivory Coast","Lagunes"
"Kirsanov",52.65739178,42.71743363,17001,"Russia","Tambov"
"Ngaoundere",7.320365823,13.57998734,134322.5,"Cameroon","Adamaoua"
"Chuquicamata",-22.31999551,-68.92998926,11941,"Chile","Antofagasta"
"Shoyna",67.86664431,44.13336788,300,"Russia","Nenets"
"Changzhou",31.77998395,119.9699792,1138009,"China","Jiangsu"
"Suining",30.5333333,105.5333333,1425000,"China","Sichuan"
"Butuan",8.949542866,125.5435925,190557,"Philippines","Agusan del Norte"
"Tagum",7.382144998,125.8016646,6726,"Philippines","Davao del Norte"
"Xangongo",-16.74002602,14.96998002,447,"Angola","Cunene"
"Manta",-0.980006084,-80.72996668,176941,"Ecuador","Manabi"
"Moose Jaw",50.39998435,-105.5500021,31436.5,"Canada","Saskatchewan"
"Gaspe",48.83731488,-64.49336084,3504,"Canada","Québec"
"Aizawl",23.71039899,92.72001461,274176,"India","Mizoram"
"Caboolture",-27.08296059,152.9499816,26495.5,"Australia","Queensland"
"Hameenlinna",60.99699611,24.47199954,47261,"Finland","Tavastia Proper"
"Herat",34.33000917,62.16999304,439232.5,"Afghanistan","Hirat"
"Sterlitamak",53.62999392,55.96003617,220040,"Russia","Bashkortostan"
"Tatarsk",55.22193809,75.96651526,24182,"Russia","Novosibirsk"
"Dar'a",32.62500014,36.10500351,122225,"Syria","Dar`a"
"Tlaxcala",19.31999514,-98.2300096,296836.5,"Mexico","Tlaxcala"
"Joplin",37.08459556,-94.51307886,60290.5,"United States of America","Missouri"
"Volgodonsk",47.50997988,42.15994828,122434.5,"Russia","Rostov"
"Volksrust",-27.35958453,29.88999955,25394.5,"South Africa","Mpumalanga"
"Sica Sica",-17.33001585,-67.72998499,1006,"Bolivia","La Paz"
"Birdsville",-25.89962197,139.3666247,283,"Australia","Queensland"
"Doctor Pedro P. Pena",-22.47998574,-62.29998051,6143,"Argentina","Formosa"
"Riohacha",11.5403408,-72.90997888,112808.5,"Colombia","La Guajira"
"Nzeto",-7.229598776,12.86003129,19705.5,"Angola","Zaire"
"Xalapa",19.52998232,-96.91998621,438667,"Mexico","Veracruz"
"Yazd",31.92005292,54.37000403,451923.5,"Iran","Yazd"
"Chipata",-13.62956989,32.64001257,82455,"Zambia","Eastern"
"Kropotkin",45.44708254,40.58211177,70518,"Russia","Krasnodar"
"Aiquile",-18.18954995,-65.18001144,5844,"Bolivia","Cochabamba"
"Bejaia",36.76037762,5.070015827,274520,"Algeria","Béjaïa"
"Hisar",29.16998822,75.72503129,423039,"India","Haryana"
"Dauphin",51.15001609,-100.0499502,8747.5,"Canada","Manitoba"
"Queenstown",-31.89961749,26.8800024,96274.5,"South Africa","Eastern Cape"
"Nain",56.54735147,-61.6860454,1151,"Canada","Newfoundland and Labrador"
"Isna",25.2904059,32.54994055,84667.5,"Egypt","Qina"
"Settat",33.01042564,-7.620010622,140415,"Morocco","Chaouia - Ouardigha"
"Aliwal North",-30.68956216,26.71003861,26423,"South Africa","Eastern Cape"
"Willemstad",12.20042971,-69.01998377,146813,"Curacao",""
"Simla",31.10002545,77.16659704,173503,"India","Himachal Pradesh"
"Meymaneh",35.93022158,64.77009273,199795,"Afghanistan","Faryab"
"Cameta",-2.239619121,-49.509986,22705,"Brazil","Pará"
"Morondava",-20.28327228,44.28333288,20018.5,"Madagascar","Toliary"
"Sisophon",13.58375612,102.9833158,36760,"Cambodia","Bântéay Méanchey"
"Qusmuryn",52.45799827,64.59997392,4345.5,"Kazakhstan","Qostanay"
"Hutchinson",38.06549176,-97.92349085,42536.5,"United States of America","Kansas"
"Teluk Intan",4.01185976,101.0314453,82506,"Malaysia","Perak"
"Lucknow",26.85503908,80.91499874,2583505.5,"India","Uttar Pradesh"
"Itaberai",-16.01996662,-49.80996769,18710.5,"Brazil","Goiás"
"Northam",-31.65658323,116.6533858,5330,"Australia","Western Australia"
"Zambezi",-13.54001463,23.10994828,4987.5,"Zambia","North-Western"
"Menkere",67.98860069,123.3504964,10,"Russia","Sakha (Yakutia)"
"Gyeongju",35.84275922,129.211689,148852.5,"South Korea","Daegu"
"Puke",42.03330302,19.88330448,6495,"Albania","Shkodër"
"Key West",24.55523114,-81.78274479,27011.5,"United States of America","Florida"
"Flagstaff",35.19809572,-111.6505083,60779.5,"United States of America","Arizona"
"Touggourt",33.0999809,6.05998124,91499,"Algeria","Ouargla"
"Tessenei",15.11038129,36.65749345,9504,"Eritrea","Gash Barka"
"Luoyang",34.67998781,112.4700752,1552790.5,"China","Henan"
"Lisbon",38.72272288,-9.144866305,1664901,"Portugal","Lisboa"
"Wuppertal",51.25000999,7.169991006,562997.5,"Germany","Nordrhein-Westfalen"
"Artemisa",22.81339947,-82.76188399,46024.5,"Cuba","La Habana"
"Cuito Caunavale",-15.15960569,19.16998205,149,"Angola","Cuando Cubango"
"Marathon",48.75039512,-86.36665104,4627,"Canada","Ontario"
"Kingman",35.18987917,-114.0522221,33306.5,"United States of America","Arizona"
