"city","latitude","longitude","population","country","province"
"Manado",1.480024637,124.8499914,449497.5,"Indonesia","Sulawesi Utara"
"Uvinza",-5.119598369,30.39002071,52500,"Tanzania","Kigoma"
"Pinas",-3.670022767,-79.64998092,16981,"Ecuador","El Oro"
"Pabna",24.00038129,89.24999385,137888,"Bangladesh","Rajshahi"
"Noumea",-22.26252776,166.4442852,89742.5,"New Caledonia","Sud"
"Mataro",41.53995668,2.45002071,149826,"Spain","Cataluña"
"Piraievs",37.95002077,23.69998979,320881,"Greece","Attiki"
"Xinyang",32.130376,114.0699776,1411944,"China","Henan"
"El Fuerte",26.42041445,-108.6199956,8326.5,"Mexico","Sinaloa"
"At Taif",21.26222801,40.38227901,594065,"Saudi Arabia","Makkah"
"Antioch",36.23333409,36.11667656,154803,"Turkey","Hatay"
"Louangphrabang",19.88453432,102.1416101,77260,"Laos","Louangphrabang"
"Beijing",39.92889223,116.3882857,9293300.5,"China","Beijing"
"Mocoa",1.149993102,-76.62998438,22035,"Colombia","Putumayo"
"Grudziadz",53.48039064,18.75000769,100964.5,"Poland","Kuyavian-Pomeranian"
"Inongo",-1.939999167,18.28001054,30181,"Congo (Kinshasa)","Bandundu"
"Queretaro",20.63001853,-100.3799817,786392.5,"Mexico","Querétaro"
"Sarapul",56.47914817,53.79872107,92622.5,"Russia","Udmurt"
"Saint Gallen",47.42299807,9.361998557,70572,"Switzerland","Sankt Gallen"
"San Jose de Mayo",-34.34995888,-56.7099858,36462,"Uruguay","San José"
"Pedro Juan Caballero",-22.54458128,-55.75999211,66029,"Paraguay","Amambay"
"Puerto Cabezas",14.03334108,-83.38337061,38318,"Nicaragua","Atlántico Norte"
"Sao Borja",-28.65960854,-56.00997685,48450.5,"Brazil","Rio Grande do Sul"
"Waycross",31.21381695,-82.35490625,17445.5,"United States of America","Georgia"
"Tarija",-21.51668537,-64.749986,155513,"Bolivia","Tarija"
"Nizhnekamsk",55.64043968,51.82003048,210363,"Russia","Tatarstan"
"Coroata",-4.12958128,-44.15000309,34129,"Brazil","Maranhão"
"Moyo",3.650408955,31.72001705,22434,"Uganda","Moyo"
"Helong",42.53475384,129.0043632,83032.5,"China","Jilin"
"El Faiyum",29.31003135,30.83996741,311582.5,"Egypt","Al Fayyum"
"Akureyi",65.66657188,-18.10001693,14754,"Iceland","Akureyri"
"Little Rock",34.73608258,-92.33109318,227555,"United States of America","Arkansas"
"Tianshui",34.60001853,105.9199841,649883.5,"China","Gansu"
"Dolo Bay",4.183348001,42.08331213,11810,"Ethiopia","Somali"
"Cape Coral",26.60290977,-81.97968368,117387.5,"United States of America","Florida"
"Mathura",27.4999868,77.67002885,330511,"India","Uttar Pradesh"
"Southampton",50.90003135,-1.399976849,384417,"United Kingdom","Southampton"
"Longview",46.13871991,-122.9369511,51290,"United States of America","Washington"
"Koror",7.345226355,134.4695009,11200,"Palau",""
"Azare",11.68040977,10.19001339,87912.5,"Nigeria","Bauchi"
"Rybinsk",58.05034426,38.81999711,203874.5,"Russia","Yaroslavl'"
"San Luis Potosi",22.16997622,-100.9999956,834852,"Mexico","San Luis Potosí"
"Kirov",54.08518577,34.30482051,33852,"Russia","Kaluga"
"Simla",31.10002545,77.16659704,173503,"India","Himachal Pradesh"
"Ajaccio",41.92706484,8.728293822,46905,"France","Corse"
"Sensuntepeque",13.88004295,-88.63000126,23687.5,"El Salvador","Cabañas"
"Yellowknife",62.44201418,-114.3969814,18658.5,"Canada","Northwest Territories"
"Troll Station",-72.01629026,2.533323119,25.5,"Antarctica",""
"Malegaon",20.5603587,74.52500118,563103,"India","Maharashtra"
"Kivalina",67.73149224,-164.4859034,374,"United States of America","Alaska"
"Shuozhou",39.30037762,112.4200008,408068.5,"China","Shanxi"
"Kimhyonggwon",40.81752016,128.1553194,3839,"North Korea","Ryanggang"
"Vitoria da Conquista",-14.85001219,-40.83999841,272320.5,"Brazil","Bahia"
"Salgueiro",-8.059625632,-39.13002527,31565,"Brazil","Pernambuco"
"Barra do Bugres",-15.06958535,-57.19000818,22386,"Brazil","Mato Grosso"
"Cotui",19.05900306,-70.1520026,41641,"Dominican Republic","Sánchez Ramírez"
"Uranium City",59.56655662,-108.6165849,89,"Canada","Saskatchewan"
"Napier",-39.4900069,176.9150305,56787,"New Zealand","Gisborne"
"Sikonge",-5.629541403,32.77003048,14549.5,"Tanzania","Tabora"
"Steinkjer",64.01706016,11.50001094,11193.5,"Norway","Nord-Trøndelag"
"Quilpie",-26.61663247,144.2500476,560,"Australia","Queensland"
"Labe",11.31999249,-12.3000092,99612,"Guinea","Labe"
"Eisenstadt",47.83329908,16.53329747,13165,"Austria","Burgenland"
"Manaus",-3.100031719,-60.00001754,1636622,"Brazil","Amazonas"
"Palma Soriano",20.21722719,-75.99880843,85110,"Cuba","Santiago de Cuba"
"Cuddalore",11.72040733,79.77000403,158569,"India","Tamil Nadu"
"Porto-Novo",6.483310973,2.616625528,267084,"Benin","Ouémé"
"Harare",-17.81778969,31.04470943,1557406.5,"Zimbabwe","Harare"
"Douglas",31.35864016,-109.5483627,23438.5,"United States of America","Arizona"
"Alpine",30.36071657,-103.6650009,6429.5,"United States of America","Texas"
"Jonkoping",57.7713432,14.16501623,86491,"Sweden","Jönköping"
"Buriram",15.00043968,103.116641,47292,"Thailand","Buri Ram"
"Hafar al Batin",28.43365074,45.96007808,249194,"Saudi Arabia","Ash Sharqiyah"
"Salamanca",20.57040977,-101.2000092,168069,"Mexico","Guanajuato"
"Zamora",-4.069584942,-78.96999658,11581.5,"Ecuador","Zamora Chinchipe"
"Talkeetna",62.3237785,-150.1094269,1078,"United States of America","Alaska"
"San Pedro Sula",15.50002159,-88.02998621,584778.5,"Honduras","Cortés"
"Samandagi",36.11705772,35.93329993,93638,"Turkey","Hatay"
"Horsham",-36.70960814,142.1900183,11985.5,"Australia","Victoria"
"Rajahmundry",17.03034161,81.78998409,304804,"India","Andhra Pradesh"
"Medea",36.27040753,2.770001179,145863.5,"Algeria","Médéa"
"Formiga",-20.46000568,-45.43002832,46076.5,"Brazil","Minas Gerais"
"Happy Valley - Goose Bay",53.29998822,-60.29999923,4309.5,"Canada","Newfoundland and Labrador"
"Tapachula",14.89998069,-92.2699858,209741,"Mexico","Chiapas"
"Girardot",4.310006937,-74.80999211,121830.5,"Colombia","Cundinamarca"
"Tan Tan",28.43039512,-11.10003076,63396,"Morocco","Guelmim - Es-Semara"
"Ruteng",-8.611839987,120.4698453,44272.5,"Indonesia","Nusa Tenggara Timur"
"Mbe",7.850436828,13.6000378,3950,"Cameroon","Nord"
"Hooper Bay",61.53108787,-166.0965648,623,"United States of America","Alaska"
"Matsuyama",33.84554262,132.765839,525089,"Japan","Ehime"
"Bongaree",-27.07872313,153.1508996,10327.5,"Australia","Queensland"
"Villa Angela",-27.58329181,-60.7166663,30051,"Argentina","Chaco"
"Yueyang",29.38005292,113.1000109,826000,"China","Hunan"
"Hailar",49.19998008,119.7000215,221118.5,"China","Nei Mongol"
"Tuguegarao",17.61309674,121.7268746,115105,"Philippines","Cagayan"
"Toledo",41.67002626,-83.57997359,388449,"United States of America","Ohio"
"Serpukhov",54.93037966,37.43000443,131871,"Russia","Moskovsskaya"
"Chongqing",29.56497703,106.5949816,5214014,"China","Chongqing"
"Tirunelveli",8.730408955,77.68997595,489022,"India","Tamil Nadu"
"Kashmar",35.18143007,58.45146033,126643,"Iran","Razavi Khorasan"
