"city","latitude","longitude","population","country","province"
"Amravati",20.94997316,77.77002274,669144,"India","Maharashtra"
"Shihezi",44.29996909,86.02993201,572977,"China","Xinjiang Uygur"
"Fort Portal",0.671004121,30.27500162,42670,"Uganda","Kabarole"
"Ebebiyin",2.152997996,11.33000156,24831,"Gabon","Wouleu-Ntem"
"Pacasmayo",-7.400647767,-79.57060592,34223.5,"Peru","La Libertad"
"San Vicente",13.64100303,-88.78499961,37326,"El Salvador","San Vicente"
"Ansan",37.34806785,126.8595328,695110.5,"South Korea","Gyeonggi-do"
"Koko",11.42319033,4.516974649,25792,"Nigeria","Kebbi"
"Atbara",17.70999005,33.97998246,138271,"Sudan","River Nile"
"Onslow",-21.65759354,115.0962959,573,"Australia","Western Australia"
"'Ataq",14.55000311,46.80000058,37315,"Yemen","Shabwah"
"Manado",1.480024637,124.8499914,449497.5,"Indonesia","Sulawesi Utara"
"Sakarya",40.76666114,30.40000251,286787,"Turkey","Sakarya"
"Wichita Falls",33.91362632,-98.49306848,97429,"United States of America","Texas"
"Maizuru",35.4504059,135.3333309,62531.5,"Japan","Kyoto"
"Ibarra",0.360377216,-78.12999618,127703.5,"Ecuador","Imbabura"
"Togiak",59.07036101,-160.3783234,236,"United States of America","Alaska"
"McGrath",62.9568148,-155.5957845,138,"United States of America","Alaska"
"Barabinsk",55.35727867,78.35189937,29888.5,"Russia","Novosibirsk"
"Karokh",34.48676963,62.59177608,14388.5,"Afghanistan","Hirat"
"Manbij",36.52664512,37.9563289,94528.5,"Syria","Aleppo (Halab)"
"Herat",34.33000917,62.16999304,439232.5,"Afghanistan","Hirat"
"Aginskoye",51.10306805,114.5228182,11491,"Russia","Aga Buryat"
"Vicuna",-30.02949909,-70.73998214,13496,"Chile","Coquimbo"
"Bozoum",6.316990376,16.38333044,25440.5,"Central African Republic","Ouham-Pendé"
"Maracaibo",10.72997683,-71.65997766,1764650,"Venezuela","Zulia"
"Rankin Inlet",62.81666831,-92.09531946,2403,"Canada","Nunavut"
"Salem",42.5224989,-70.88309175,188982,"United States of America","Massachusetts"
"Gweru",-19.45004148,29.82002966,164715.5,"Zimbabwe","Midlands"
"Vicente Guerrero",30.76405113,-116.0092603,7294.5,"Mexico","Baja California"
"Itanhaem",-24.17998533,-46.80002222,82722,"Brazil","São Paulo"
"Zumpango",19.81040448,-99.10998173,188994,"Mexico","México"
"Laguna",-28.48003294,-48.77997888,32532,"Brazil","Santa Catarina"
"Dzerzhinsk",56.25037661,43.46002397,235457.5,"Russia","Nizhegorod"
"Eldorado",-26.20001707,-54.59998539,17365,"Argentina","Misiones"
"Balykchy",42.4560248,76.18536495,40263.5,"Kyrgyzstan","Ysyk-Köl"
"Brno",49.20039349,16.60998328,378918,"Czech Republic","Kraj Vysocina"
"Dosso",13.05001609,3.200000772,46481.5,"Niger","Dosso"
"Mazowe",-17.51961668,30.97003699,9966,"Zimbabwe","Mashonaland Central"
"Lijiang",26.80000368,100.2665824,18445,"China","Yunnan"
"Las Vegas",35.59701194,-105.2225027,15521,"United States of America","New Mexico"
"Montgomery",32.36160219,-86.27918868,194491.5,"United States of America","Alabama"
"Maryborough",-37.04958738,143.729976,5838.5,"Australia","Victoria"
"Huize",26.35041872,103.4166744,5170,"China","Yunnan"
"Azua",18.45399613,-70.7290016,59139,"Dominican Republic","Azua"
"Columbia",38.95207847,-92.33390955,244754,"United States of America","Missouri"
"Halacho",20.47997601,-90.08001612,8116,"Mexico","Yucatán"
"Uthai Thani",15.38186342,100.026442,19233,"Thailand","Uthai Thani"
"Canavieiras",-15.64004148,-38.96000981,26375,"Brazil","Bahia"
"Chosan",40.82547833,125.8008378,7786,"North Korea","Chagang-do"
"Acapulco",16.84999086,-99.91597905,683860,"Mexico","Guerrero"
"El Manteco",7.35038983,-62.53332544,2215,"Venezuela","Bolívar"
"Langzhong",31.57593955,105.9655627,60542,"China","Sichuan"
"Colon",9.365021382,-79.8749801,170488,"Panama","Colón"
"Mpwapwa",-6.349600811,36.4799849,10093.5,"Tanzania","Dodoma"
"Machilipatnam",16.20041811,81.17999548,192827,"India","Andhra Pradesh"
"Apatzingan",19.07998395,-102.3500165,92616.5,"Mexico","Michoacán"
"Vancouver",45.63030133,-122.6399925,343796.5,"United States of America","Washington"
"Olomouc",49.63003135,17.24999589,97829,"Czech Republic","Moravskoslezský"
"Trepassey",46.73697797,-53.36329085,398,"Canada","Newfoundland and Labrador"
"Douglas",42.75647158,-105.3845341,5838,"United States of America","Wyoming"
"Bolama",11.58295303,-15.48280399,9179,"Guinea Bissau","Bolama"
"Khammam",17.28042971,80.16005774,230671,"India","Andhra Pradesh"
"Kiama",-34.70957518,150.8400329,10379,"Australia","New South Wales"
"Niigata",37.91999676,139.0400297,537534.5,"Japan","Niigata"
"Umuahia",5.532003041,7.486002487,264662,"Nigeria","Abia"
"Okhotsk",59.38300193,143.2170357,5570,"Russia","Khabarovsk"
"Cold Bay",55.20000144,-162.7150916,154,"United States of America","Alaska"
"Sangar",63.92414593,127.4739139,4633,"Russia","Sakha (Yakutia)"
"Jiangmen",22.58039044,113.0800122,532419,"China","Guangdong"
"Xigaze",29.25000917,88.88334957,59314.5,"China","Xizang"
"Toumodi",6.552000132,-5.019002394,39005,"Ivory Coast","Lacs"
"Udon Thani",17.4047632,102.7893225,239192,"Thailand","Udon Thani"
"Hotan",37.09971092,79.92694535,187865,"China","Xinjiang Uygur"
"Basseterre",17.30203046,-62.71700932,18693.5,"Saint Kitts and Nevis",""
"Severouralsk",60.15652061,59.96154903,34819,"Russia","Sverdlovsk"
"Hyderabad",25.379987,68.37498897,1422665,"Pakistan","Sind"
"Tibati",6.46698122,12.63332678,22096,"Cameroon","Adamaoua"
"Kukes",42.08300107,20.43399653,17832,"Albania","Kukës"
"Cheyenne",41.14000694,-104.8197107,64185,"United States of America","Wyoming"
"Kano",11.99997683,8.5200378,3140000,"Nigeria","Kano"
"Antigonish",45.62691652,-61.99819015,5871,"Canada","Nova Scotia"
"Tizimin",21.13042727,-88.14997888,41322.5,"Mexico","Yucatán"
"Xining",36.6199986,101.7700048,907765.5,"China","Gansu"
"Port Charlotte",27.00004315,-82.10569666,56806,"United States of America","Florida"
"Kirikkale",39.85036989,33.52998409,208554.5,"Turkey","Kinkkale"
"Itapecuru Mirim",-3.400013409,-44.36001611,22347,"Brazil","Maranhão"
"Simferopol",44.94915428,34.0987349,305882.5,"Ukraine","Crimea"
"Repulse Bay",66.52946689,-86.28293502,874,"Canada","Nunavut"
"Omutninsk",58.6589376,52.1591829,29082,"Russia","Kirov"
"Ivdel",60.69364545,60.41325273,11466.5,"Russia","Sverdlovsk"
"Katowice",50.26038047,19.02001705,1527362,"Poland","Silesian"
"Saint Gallen",47.42299807,9.361998557,70572,"Switzerland","Sankt Gallen"
"Benguela",-12.57826455,13.40723303,142017,"Angola","Benguela"
"Pyay",18.81645998,95.21143876,124833.5,"Myanmar","Bago"
"Bogande",12.96900003,-0.1379965,9854,"Burkina Faso","Gnagna"
"Kaya",13.09037539,-1.090047446,39623,"Burkina Faso","Sanmatenga"
"Gent",51.02999758,3.700021931,337914.5,"Belgium","East Flanders"
"Keren",15.68039817,38.44999385,148241.5,"Eritrea","Semenawi Keyih Bahri"
"Guaranda",-1.60999347,-79.01001998,23933,"Ecuador","Bolivar"
