"city","latitude","longitude","population","country","province"
"Naga",13.61915448,123.1813594,458283,"Philippines","Camarines Sur"
"Minxian",34.4361784,104.0305904,67826,"China","Gansu"
"Dayton",39.750376,-84.19998743,466067,"United States of America","Ohio"
"Zanjan",36.67002138,48.50002641,355012.5,"Iran","Zanjan"
"Palangkaraya",-2.209595114,113.9099873,148289,"Indonesia","Kalimantan Tengah"
"Vina del Mar",-33.02998777,-71.53998499,399042.5,"Chile","Valparaíso"
"Trofimovsk",72.59968874,127.0336824,10,"Russia","Sakha (Yakutia)"
"Shalqar",47.83629071,59.6140767,27256,"Kazakhstan","Aqtöbe"
"Maun",-19.98959511,23.42000688,47059,"Botswana","North-West"
"Yen Bai",21.70500304,104.8750026,96540,"Vietnam","Yên Bái"
"Isfahan",32.70000531,51.7000378,1572883,"Iran","Esfahan"
"Bandundu",-3.309993063,17.37996212,107997.5,"Congo (Kinshasa)","Bandundu"
"Bafang",5.170393696,10.17998816,86916.5,"Cameroon","Ouest"
"Kagoshima",31.58596478,130.561064,536092.5,"Japan","Kagoshima"
"Alexandria",43.90163107,25.28670654,49346,"Romania","Teleorman"
"Barahona",18.20037355,-71.099986,83644,"Dominican Republic","Barahona"
"Bartlesville",36.74720013,-95.98058618,24935,"United States of America","Oklahoma"
"Matagalpa",12.91707847,-85.91665267,106514.5,"Nicaragua","Matagalpa"
"Bergamo",45.70040041,9.669993448,160658,"Italy","Lombardia"
"Bafoulabe",13.80038373,-10.82002201,26823,"Mali","Kayes"
"Orcadas Station",-60.7328963,-44.73330082,29.5,"Antarctica",""
"Bitlis",38.39400012,42.12299765,52960,"Turkey","Bitlis"
"Kermanshah",34.38000612,47.06001094,828313,"Iran","Kermanshah"
"Kasur",31.12537274,74.45503129,290643,"Pakistan","Punjab"
"Wasilla",61.58173077,-149.439442,8521,"United States of America","Alaska"
"Urgentch",41.5599813,60.64000891,126476.5,"Uzbekistan","Khorezm"
"Fox Bay",-51.95058999,-60.08696314,90,"Falkland Islands",""
"Chattanooga",35.06998985,-85.25000086,206571.5,"United States of America","Tennessee"
"Arroyos y Esteros",-25.04995807,-57.08998845,2755,"Paraguay","Cordillera"
"Paranaiba",-19.6795882,-51.20001205,25278.5,"Brazil","Mato Grosso do Sul"
"Supham Buri",14.47100105,100.1289966,53399,"Thailand","Suphan Buri"
"Bowling Green",36.99069948,-86.44364893,61349,"United States of America","Kentucky"
"Athens",33.96129783,-83.3780221,78017.5,"United States of America","Georgia"
"Quarai",-30.38002033,-56.45994938,18462,"Brazil","Rio Grande do Sul"
"Pasto",1.21360679,-77.28110742,371138.5,"Colombia","Nariño"
"Kafue",-15.78003294,28.18002641,25725.5,"Zambia","Southern"
"Hailun",47.45042279,126.9300195,104848.5,"China","Heilongjiang"
"McMinns Lagoon",-12.53289264,131.0500264,5025,"Australia","Northern Territory"
"Jaffna",9.675002461,80.00502844,169069,"Sri Lanka","Jaffna"
"La Grande",45.32468691,-118.0866012,13646,"United States of America","Oregon"
"Oldeani",-3.349628887,35.55001583,7300.5,"Tanzania","Arusha"
"Berkeley",37.87390139,-122.271152,298257,"United States of America","California"
"Svetogorsk",61.10132082,28.9176558,22924,"Russia","Leningrad"
"Cayambe",0.050370299,-78.15999435,27231.5,"Ecuador","Pichincha"
"Mao",14.11943402,15.31331824,15040,"Chad","Kanem"
"Cauquenes",-35.96004148,-72.31998906,24155,"Chile","Maule"
"Libertador General San Martin",-23.81954222,-64.78998356,47559,"Argentina","Jujuy"
"Zhob",31.34897666,69.4385933,69446.5,"Pakistan","Baluchistan"
"Bentiu",9.2333333,29.8333333,7653,"South Sudan","Unity"
"Surat",21.19998374,72.84003943,3368252,"India","Dadra and Nagar Haveli"
"Esquel",-42.90003131,-71.31661361,20048,"Argentina","Chubut"
"Comandante Fontana",-25.33329995,-59.68331852,4277,"Argentina","Formosa"
"Ufa",54.78997479,56.04003129,969378,"Russia","Bashkortostan"
"Santa Ana",-13.7600012,-65.57996118,234478,"Bolivia","El Beni"
"Chernogorsk",53.8313253,91.22268998,39815.5,"Russia","Khakass"
"Ituiutaba",-18.97001911,-49.45998906,63978,"Brazil","Minas Gerais"
"Ivanovo",57.01002016,41.00999263,417527,"Russia","Ivanovo"
"Mariental",-24.61959674,17.95992672,12670,"Namibia","Hardap"
"Changchun",43.86500856,125.3399873,2860210.5,"China","Jilin"
"Faridabad",28.4333333,77.3166667,1394000,"India","Haryana"
"Mikumi",-7.399614239,36.98000606,12471,"Tanzania","Morogoro"
"Lowell",42.63368837,-71.31669112,415074,"United States of America","Massachusetts"
"Caracarai",1.816231505,-61.12767481,11368,"Brazil","Roraima"
"National City",32.67194501,-117.0980052,104291,"United States of America","California"
"Oak Ridge",36.01065594,-84.26972477,30471.5,"United States of America","Tennessee"
"Tashtagol",52.79175051,87.86770097,21902,"Russia","Kemerovo"
"Luhansk",48.56976015,39.33438432,408931,"Ukraine","Luhans'k"
"John Day",44.41652529,-118.9520264,1437.5,"United States of America","Oregon"
"Alicante",38.3512199,-0.483640721,296345,"Spain","Comunidad Valenciana"
"Ocala",29.1873515,-82.14026819,95470,"United States of America","Florida"
"Ciudad del Este",-25.51669961,-54.61605676,320872,"Paraguay","Alto Paraná"
"Riobamba",-1.670041485,-78.65004195,148471,"Ecuador","Chimborazo"
"Great Wall Station",-62.21631997,-58.9666956,26,"Antarctica",""
"Engels",51.50040814,46.12001664,183221,"Russia","Saratov"
"Shihezi",44.29996909,86.02993201,572977,"China","Xinjiang Uygur"
"Nephi",39.71027508,-111.8354841,4960,"United States of America","Utah"
"Denpasar",-8.650028871,115.2199849,569133.5,"Indonesia","Bali"
"Debre Markos",10.33997479,37.72001257,65339,"Ethiopia","Amhara"
"Afyon",38.75038535,30.55001094,151564,"Turkey","Afyon"
"Oujda",34.69001304,-1.909971559,407322,"Morocco","Oriental"
"Urumqi",43.80501223,87.57500565,1829612.5,"China","Xinjiang Uygur"
"Kurnool",15.83000144,78.03000688,351522,"India","Andhra Pradesh"
"Yeghegnadzor",39.7611111,45.3333333,8200,"Armenia","Vayots Dzor"
"Kingoonya",-30.89957518,135.2999996,50,"Australia","South Australia"
"Irbid",32.54998863,35.84999752,471020,"Jordan","Irbid"
"Zhigansk",66.76970868,123.3711153,3237,"Russia","Sakha (Yakutia)"
"Huangshi",30.22000165,115.0999922,688090,"China","Hubei"
"Binjai",3.620359109,98.50007524,405494.5,"Indonesia","Sumatera Utara"
"Tula",54.19995913,37.62994055,479155.5,"Russia","Tula"
"Tours",47.38037539,0.699946654,188858.5,"France","Centre"
"Saryshaghan",46.11954795,73.61911332,2331,"Kazakhstan","Qaraghandy"
"Hargeysa",9.560022399,44.06531002,362447,"Somaliland",""
"Ksar El Kebir",35.02038047,-5.909985801,207676.5,"Morocco","Tanger - Tétouan"
"Jamaame",0.072177754,42.75055823,156923.5,"Somalia","Jubbada Hoose"
"Houlton",46.12551658,-67.83971989,6051.5,"United States of America","Maine"
"Montpelier",44.25997154,-72.57581323,8183,"United States of America","Vermont"
"Podkamennaya",61.59950747,90.12363562,10,"Russia","Krasnoyarsk"
"Tmassah",26.36664512,15.80000688,350,"Libya","Murzuq"
"Macara",-4.379591859,-79.94998845,11748,"Ecuador","Loja"
"Trujillo",9.38039512,-70.44000045,44231.5,"Venezuela","Trujillo"
