"city","latitude","longitude","population","country","province"
"Bujumbura",-3.37608722,29.36000606,331700,"Burundi","Bujumbura Mairie"
"Naivasha",-0.709583314,36.42996212,41174.5,"Kenya","Rift Valley"
"Maitri Station",-70.7821796,11.7304584,33,"Antarctica",""
"Yingkow",40.67034568,122.2800191,693079.5,"China","Liaoning"
"Malabo",3.750015278,8.783277546,155963,"Equatorial Guinea","Bioko Norte"
"Tidjikdja",18.5500163,-11.41660059,19981,"Mauritania","Tagant"
"Tsu",34.71706565,136.5166695,392484.5,"Japan","Mie"
"Cacolo",-10.14962726,19.2600024,984,"Angola","Lunda Sul"
"Tongling",30.95044802,117.7800354,437710,"China","Anhui"
"Cuya",-19.11667682,-70.13330082,20,"Chile","Tarapacá"
"Ahvaz",31.27998863,48.72001298,918572.5,"Iran","Khuzestan"
"Porvoo",60.40035585,25.66601965,12242,"Finland","Eastern Uusimaa"
"Nizhenvartovsk",60.93497438,76.58001786,136385,"Russia","Khanty-Mansiy"
"Milan",45.4699752,9.20500891,2125830.5,"Italy","Lombardia"
"Chiquimula",14.79699906,-89.54399653,41521,"Guatemala","Chiquimula"
"Gonder",12.61004295,37.46002844,155072,"Ethiopia","Amhara"
"Ayr",-19.57024087,147.3994677,7166,"Australia","Queensland"
"Baiquan",47.60183474,126.0818542,52679.5,"China","Heilongjiang"
"Sunshine Coast",-26.67998777,153.0500272,57215.5,"Australia","Queensland"
"Kakonko",-3.279607321,30.96001176,16319,"Tanzania","Kigoma"
"Trnava",48.36659426,17.60000036,60919,"Slovakia","Trnavský"
"Great Falls",47.50029055,-111.299987,61316.5,"United States of America","Montana"
"Warangal",18.00999758,79.57998979,1034690,"India","Andhra Pradesh"
"Leshan",29.56709576,103.7333475,655738.5,"China","Sichuan"
"Liverpool",44.03995913,-64.72001367,4331,"Canada","Nova Scotia"
"Alexander Bay",-28.60834552,16.50332312,1476,"South Africa","Northern Cape"
"Fuerte Olimpo",-21.06958087,-57.89999068,2475,"Paraguay","Alto Paraguay"
"Pires do Rio",-17.29952675,-48.27998356,21688,"Brazil","Goiás"
"Cranbrook",49.5166791,-115.7666653,17990,"Canada","British Columbia"
"Cachoeiro de Itapemirim",-20.85000771,-41.12998071,174808.5,"Brazil","Espírito Santo"
"Liaoyuan",42.89997703,125.1299743,485898.5,"China","Jilin"
"Casa Grande",32.87937421,-111.7566258,38396.5,"United States of America","Arizona"
"Barddhaman",23.25037539,87.86496212,301725,"India","West Bengal"
"Tuquerres",1.089996764,-77.61994979,27081.5,"Colombia","Nariño"
"Baerum",59.91348606,11.34723651,113659,"Norway","Akershus"
"San Vicente del Caguan",2.070376199,-74.64002832,1250,"Colombia","Caquetá"
"Kuznetsk",53.12041262,46.59998734,93027,"Russia","Penza"
"Corumba",-19.01601113,-57.65000594,70035.5,"Brazil","Mato Grosso do Sul"
"Quilpie",-26.61663247,144.2500476,560,"Australia","Queensland"
"Cabinda",-5.55962319,12.18999467,78905.5,"Angola","Cabinda"
"Jonkoping",57.7713432,14.16501623,86491,"Sweden","Jönköping"
"Sharjah",25.37138287,55.40647823,952015.5,"United Arab Emirates","Sharjah"
"Plovdiv",42.15397605,24.7539823,319089.5,"Bulgaria","Plovdiv"
"Lae",-6.732988262,146.9900354,103653.5,"Papua New Guinea","Morobe"
"Bayan Obo",41.76764305,109.9711063,27476,"China","Nei Mongol"
"Cojutepeque",13.71670204,-88.9333016,48411,"El Salvador","Cuscatlán"
"Wuzhou",23.48002545,111.3200162,354080.5,"China","Guangxi"
"Huelva",37.25037355,-6.929949383,119732,"Spain","Andalucía"
"Liaoyang",41.27999839,123.1800158,740945,"China","Liaoning"
"Brussels",50.83331708,4.333316608,1381011,"Belgium","Brussels"
"Piso Firme",-13.68295164,-61.86662195,72,"Bolivia","Santa Cruz"
"Elblag",54.18995974,19.40268103,124332,"Poland","Warmian-Masurian"
"Saratoga Springs",43.08296328,-73.78501591,41891,"United States of America","New York"
"Arica",-18.50002195,-70.28998377,178446.5,"Chile","Arica y Parinacota"
"Shache",38.42614158,77.25000281,282391.5,"China","Xinjiang Uygur"
"Embi",48.82677289,58.14419226,10009.5,"Kazakhstan","Aqtöbe"
"Mansa",-11.20000242,28.89000891,31357,"Zambia","Luapula"
"Albacete",39.00034426,-1.869999839,127597,"Spain","Castilla-La Mancha"
"Tshabong",-26.00948606,22.40001745,9679,"Botswana","Kgalagadi"
"Shawnee",35.34278973,-96.93378382,29160,"United States of America","Oklahoma"
"Chiramba",-16.89210976,34.65585852,556,"Mozambique","Sofala"
"Suileng",47.24599082,127.1059777,57456.5,"China","Heilongjiang"
"Mbanza-Ngungu",-5.249616273,14.86001257,141950.5,"Congo (Kinshasa)","Bas-Congo"
"Carmelo",-33.98961912,-58.29999211,15113.5,"Uruguay","Colonia"
"Tabriz",38.08629152,46.30124589,1304713,"Iran","East Azarbaijan"
"Mucusso",-18.01953449,21.42999914,100,"Angola","Cuando Cubango"
"Sunbury",-37.56960732,144.7100195,18677.5,"Australia","Victoria"
"Corpus Christi",27.74281435,-97.40189478,249977.5,"United States of America","Texas"
"Campobasso",41.56299912,14.65599656,50762,"Italy","Molise"
"Rouen",49.43040529,1.079975137,321417.5,"France","Haute-Normandie"
"Mobile",30.68002525,-88.04998499,221870,"United States of America","Alabama"
"Al Mafraq",32.28329707,36.23329852,57118,"Jordan","Mafraq"
"Sheffield",53.36667666,-1.499996583,922800,"United Kingdom","South Yorkshire"
"Terrace",54.49999249,-128.5833248,14772,"Canada","British Columbia"
"Mulhouse",47.75040448,7.34998002,163442,"France","Alsace"
"Blenheim",-41.52099404,173.9592419,23056.5,"New Zealand","Marlborough"
"Acu",-5.57962197,-36.91005742,33303,"Brazil","Rio Grande do Norte"
"Solikamsk",59.669987,56.74996212,97397,"Russia","Perm'"
"Arrecife",28.96904923,-13.53783283,47182.5,"Spain",""
"Fortaleza",-3.750017884,-38.57998132,2958717.5,"Brazil","Ceará"
"Nueva Imperial",-38.74002684,-72.96002751,13322.5,"Chile","La Araucanía"
"Yakossi",5.617007262,23.31665401,409.5,"Central African Republic","Mbomou"
"Darwin",-12.42535398,130.8500386,82973,"Australia","Northern Territory"
"Sovetsk",55.07176638,21.88196122,40166.5,"Russia","Kaliningrad"
"Namur",50.47039349,4.870028034,97155.5,"Belgium","Namur"
"Koulikoro",12.88330792,-7.549989056,13408.5,"Mali","Bamako"
"Ust Maya",60.45657981,134.5433016,3062,"Russia","Sakha (Yakutia)"
"Atlantic City",39.36463727,-74.4233232,58563.5,"United States of America","New Jersey"
"Biharamulo",-2.629621156,31.31001623,21817.5,"Tanzania","Kagera"
"San Angelo",31.4640084,-100.4366966,87297.5,"United States of America","Texas"
"Igloolik",69.25653506,-81.79359213,1612,"Canada","Nunavut"
"Bermejo",-22.72958291,-64.34998458,36544,"Bolivia","Tarija"
"Fort Pierce",27.44678591,-80.3258053,132984,"United States of America","Florida"
"Merimbula",-36.89962238,149.9000386,3607.5,"Australia","New South Wales"
"Merowe",18.48330202,31.81665198,7405,"Sudan","Northern"
"Sdid Bouzid",35.01669608,9.500004482,42098,"Tunisia","Sidi Bou Zid"
"Qeqertasuaq",69.24416391,-53.56523854,7.5,"Greenland","Qaasuitsup Kommunia"
"El Paso",31.77998395,-106.5099952,658331,"United States of America","Texas"
"As Sidr",30.67041343,18.26662634,50,"Libya","Surt"
"Inverell",-29.7667761,151.1125744,6845.5,"Australia","New South Wales"
