"city","latitude","longitude","population","country","province"
"Fort Collins",40.56068829,-105.0588693,178818.5,"United States of America","Colorado"
"Pinas",-3.670022767,-79.64998092,16981,"Ecuador","El Oro"
"Binga",2.383406188,20.41998328,64639,"Congo (Kinshasa)","Équateur"
"Tbilisi",41.72500999,44.79079545,1052628.5,"Georgia","Tbilisi"
"Taloqan",36.72999904,69.54000364,64256,"Afghanistan","Takhar"
"Mehtar Lam",34.65000001,70.16670052,17345,"Afghanistan","Laghman"
"Korla",41.72999676,86.15002803,192919,"China","Xinjiang Uygur"
"Quibala",-10.72959186,14.97995357,5248.5,"Angola","Cuanza Sul"
"Ali Bayramli",39.93230288,48.92025915,70452,"Azerbaijan","?li Bayramli"
"Guapi",2.560397968,-77.85998682,13853,"Colombia","Cauca"
"Mukhomornoye",66.4170687,173.333337,55,"Russia","Chukchi Autonomous Okrug"
"Tatarsk",55.22193809,75.96651526,24182,"Russia","Novosibirsk"
"Lop Buri",14.80401756,100.6186023,42130.5,"Thailand","Lop Buri"
"Ranchi",23.37000633,85.33002641,945227,"India","Jharkhand"
"Delano",35.76193728,-119.2430681,42396.5,"United States of America","California"
"Metz",49.1203467,6.180025593,266550,"France","Lorraine"
"Dolores",-36.33004474,-57.68997766,21586.5,"Argentina","Ciudad de Buenos Aires"
"Khakhar",57.66659507,135.4300175,10,"Russia","Khabarovsk"
"Kaoma",-14.77962889,24.79997432,7259,"Zambia","Western"
"Lulea",65.59663477,22.15837833,47094.5,"Sweden","Norrbotten"
"Jinan",36.67498232,116.9950187,2433633,"China","Shandong"
"Cat Lake",51.71703575,-91.79998865,277,"Canada","Ontario"
"Abohar",30.12042116,74.29002844,130603,"India","Punjab"
"Montréal",45.49999921,-73.58329696,3017278,"Canada","Québec"
"Iskitim",54.65093935,83.28653357,60806.5,"Russia","Novosibirsk"
"Zheleznogorsk",52.3547746,35.40439164,94212,"Russia","Kursk"
"Venado Tuerto",-33.74958209,-61.97000065,52079,"Argentina","Santa Fe"
"Qacha's Nek",-30.11726692,28.70199951,25573,"South Africa","Eastern Cape"
"Melville",50.93331097,-102.7999891,4226,"Canada","Saskatchewan"
"Lezhe",41.78799914,19.65400254,18695,"Albania","Lezhë"
"Frederikshavn",57.43368939,10.53329993,22385,"Denmark","Nordjylland"
"Myrtle Beach",33.68891136,-78.8869784,37333.5,"United States of America","South Carolina"
"San Salvador de Jujuy",-24.1833443,-65.30002995,258739,"Argentina","Jujuy"
"Conway",35.09128054,-92.4513184,56759.5,"United States of America","Arkansas"
"Berberati",4.249958922,15.7800081,60605,"Central African Republic","Mambéré-Kadéï"
"Nueva Ocotepeque",14.43699912,-89.18199855,8780,"Honduras","Ocotepeque"
"Criciuma",-28.68002073,-49.38996749,183085.5,"Brazil","Santa Catarina"
"Rustavi",41.57036826,45.05000443,156770,"Georgia","Kvemo Kartli"
"Zaghouan",36.39999616,10.14699661,16911,"Tunisia","Zaghouan"
"Tsetserleg",47.47688112,101.4501794,18056,"Mongolia","Arhangay"
"Siracusa",37.0703587,15.28996049,123110,"Italy","Sicily"
"Gujrat",32.5799868,74.08001542,301506,"Pakistan","Punjab"
"Brazzaville",-4.259185772,15.28468949,1259445,"Congo (Brazzaville)","Pool"
"Bowling Green",41.37474713,-83.65139042,33147.5,"United States of America","Ohio"
"Challapata",-18.89958413,-66.77999129,8565,"Bolivia","Oruro"
"Mannheim",49.50037518,8.470015013,1337587,"Germany","Baden-Württemberg"
"San Francisco Gotera",13.69999812,-88.10000052,16152,"El Salvador","Morazán"
"Pond Inlet",72.68498069,-78.00005579,1549,"Canada","Nunavut"
"Ob",54.99804995,82.70765417,32093.5,"Russia","Novosibirsk"
"Maseru",-29.31667438,27.48327307,239839.5,"Lesotho","Maseru"
"Langsa",4.673576476,97.96636104,117256,"Indonesia","Aceh"
"Quinhagak",59.74923281,-161.9157864,250,"United States of America","Alaska"
"Rijeka",45.32998374,14.45001176,156082,"Croatia","Primorsko-Goranska"
"Constitucion",-35.32958901,-72.41998295,26902.5,"Chile","Maule"
"Port-De-Paix",19.93176008,-72.82948452,34657,"Haiti","Nord-Ouest"
"Babruysk",53.12656211,29.19278113,212821.5,"Belarus","Mahilyow"
"As Salt",32.03919293,35.72721431,110439,"Jordan","Balqa"
"Birmingham",52.47497398,-1.919996787,1634666.5,"United Kingdom","West Midlands"
"Karokh",34.48676963,62.59177608,14388.5,"Afghanistan","Hirat"
"Buffalo",42.87997825,-78.88000208,647778.5,"United States of America","New York"
"Taltal",-25.40001422,-70.47002446,8947.5,"Chile","Antofagasta"
"Canton",40.79886497,-81.37863509,168410,"United States of America","Ohio"
"Melo",-32.35948606,-54.17998519,53258.5,"Uruguay","Cerro Largo"
"Drobeta-Turnu Severin",44.64589113,22.6658927,104462,"Romania","Mehedinti"
"San Nicolas",-33.33002114,-60.24000289,117123.5,"Argentina","Ciudad de Buenos Aires"
"Tamworth",-31.10261188,150.9171342,35080,"Australia","New South Wales"
"Kuala Lipis",4.18400112,102.0420006,15448,"Malaysia","Pahang"
"Valladolid",20.67040367,-88.20000167,44071,"Mexico","Yucatán"
"Guanare",9.049976012,-69.75001673,131964,"Venezuela","Portuguesa"
"Vilnius",54.68336631,25.31663529,524697.5,"Lithuania","Vilniaus"
"Ahmednagar",19.11042137,74.75000037,379450,"India","Maharashtra"
"Kamyanets-Podilskyy",48.68430096,26.58089921,107329,"Ukraine","Khmel'nyts'kyy"
"Dongola",19.16659365,30.48329667,26404,"Sudan","Northern"
"Kislovodsk",43.90996706,42.72001745,132337,"Russia","Stavropol'"
"Uyar",55.81037762,94.31531775,12370,"Russia","Krasnoyarsk"
"Patos",-7.019585756,-37.29000838,85720.5,"Brazil","Paraíba"
"Soledad",10.92001691,-74.76999455,520704,"Colombia","Atlántico"
"Lautoka",-17.61609658,177.4666247,55894,"Fiji","Western"
"Zahle",33.85011599,35.90415442,61192,"Lebanon","Mount Lebanon"
"Porvoo",60.40035585,25.66601965,12242,"Finland","Eastern Uusimaa"
"Aweil",8.766556619,27.40002234,42725,"South Sudan","North Bahr-al-Ghazal"
"Laverton",-28.62700071,122.4040425,316,"Australia","Western Australia"
"Samalut",28.30042889,30.71000118,121281,"Egypt","Al Minya"
"Tallinn",59.43387738,24.72804073,367025.5,"Estonia","Harju"
"Cochrane",49.06701662,-81.01656417,4441,"Canada","Ontario"
"Burwash Landing",61.35037539,-139.0000017,73,"Canada","Yukon"
"Hoskins",-5.474615459,150.4099816,871,"Papua New Guinea","West New Britain"
"Trepassey",46.73697797,-53.36329085,398,"Canada","Newfoundland and Labrador"
"Ponta Delgada",37.74830182,-25.6665835,40791,"Portugal","Azores"
"Ajdabiya",30.76999392,20.21999548,139095.5,"Libya","Ajdabiya"
"Kumamoto",32.80092938,130.700642,699327.5,"Japan","Kumamoto"
"Gumushane",40.46400013,39.48399962,32250,"Turkey","Gümüshane"
"Goodnews Bay",59.12099265,-161.5871302,230,"United States of America","Alaska"
"Dundee",56.47038902,-3.000008384,151013.5,"United Kingdom","Dundee"
"Ayan",56.45424113,138.1673305,1286,"Russia","Khabarovsk"
"Fort Smith",60.00001853,-111.8833364,518,"Canada","Alberta"
"Cerro de Pasco",-10.69000771,-76.26998051,108071,"Peru","Pasco"
"Kirov",58.59005292,49.66998083,457410,"Russia","Kirov"
"Honda",5.190340799,-74.74999577,31813.5,"Colombia","Tolima"
"Santa Marta",11.24720624,-74.20165715,417211,"Colombia","Magdalena"
