"city","latitude","longitude","population","country","province"
"Stanley",-51.70001097,-57.8499679,2213,"Falkland Islands",""
"Puerto Deseado",-47.75001951,-65.89996749,3305,"Argentina","Santa Cruz"
"Itupiranga",-5.120011781,-49.30002466,21301,"Brazil","Pará"
"Douglas",31.50777834,-82.85068994,12159,"United States of America","Georgia"
"Phoenix",33.53997988,-112.0699917,2436022.5,"United States of America","Arizona"
"Canatlan",24.51998781,-104.7799974,7806.5,"Mexico","Durango"
"Yibin",28.7699868,104.5700406,572055.5,"China","Sichuan"
"Roi Et",16.050996,103.6549986,39328,"Thailand","Roi Et"
"Viborg",56.43333701,9.399984089,32944,"Denmark","Midtjylland"
"Dhaka",23.72305971,90.40857947,9899167,"Bangladesh","Dhaka"
"Koriyama",37.40997622,140.3799996,302581,"Japan","Fukushima"
"Abu Kamal",34.45041526,40.9186287,69190,"Syria","Dayr Az Zawr"
"Inhumas",-16.35999754,-49.49998661,36122,"Brazil","Goiás"
"Novo Hamburgo",-29.70962197,-51.13998987,557017,"Brazil","Rio Grande do Sul"
"Ica",-14.06799274,-75.72549178,263132,"Peru","Ica"
"Cananea",30.99041974,-110.3000481,28625.5,"Mexico","Sonora"
"Bayan Obo",41.76764305,109.9711063,27476,"China","Nei Mongol"
"Telsen",-42.39959674,-66.95000676,493,"Argentina","Chubut"
"Wheeling",40.06431032,-80.72107833,40940,"United States of America","West Virginia"
"Beziers",43.35049217,3.209974323,77759.5,"France","Languedoc-Roussillon"
"Suzhou",33.6361111,116.9788889,1964000,"China","Anhui"
"Cherbourg",49.65039187,-1.649987428,60991,"France","Basse-Normandie"
"Karluk",57.57228558,-154.4550273,96,"United States of America","Alaska"
"St. Paul",44.94398663,-93.08497481,509961,"United States of America","Minnesota"
"Bur Safaga",26.73372866,33.93331864,21035.5,"Egypt","Al Bahr al Ahmar"
"Ras al Khaymah",25.79153811,55.94277624,138399,"United Arab Emirates","Ras Al Khaymah"
"Tranqueras",-31.20002195,-55.74996688,4775.5,"Uruguay","Rivera"
"Mount Barker",-34.632784,117.6666056,1771.5,"Australia","Western Australia"
"Lafia",8.490423603,8.5200378,79470.5,"Nigeria","Nassarawa"
"Watson Lake",60.1166264,-128.80003,802,"Canada","Yukon"
"Bugrino",68.80787884,49.30416337,300,"Russia","Nenets"
"Mitzik",0.78371055,11.56662187,3998.5,"Gabon","Wouleu-Ntem"
"Tampico",22.30001996,-97.87000574,578351.5,"Mexico","Tamaulipas"
"Balancan",17.79995872,-91.52997929,7666.5,"Mexico","Tabasco"
"Tonghua",41.67997398,125.7499882,27227,"China","Jilin"
"Ngara",-2.469527569,30.65000484,10744,"Tanzania","Kagera"
"Canavieiras",-15.64004148,-38.96000981,26375,"Brazil","Bahia"
"Tamuin",21.98037539,-98.7500037,11076.5,"Mexico","San Luis Potosí"
"Santo Domingo",18.47007285,-69.90008508,1078436.5,"Dominican Republic","Distrito Nacional"
"Ushuaia",-54.79000324,-68.31000126,50483.5,"Argentina","Tierra del Fuego"
"Tartu",58.38394147,26.70988358,90033.5,"Estonia","Tartu"
"Alekseyevka",50.65348309,38.69307979,38633.5,"Russia","Belgorod"
"Santa Marta",11.24720624,-74.20165715,417211,"Colombia","Magdalena"
"Tepic",21.50539146,-104.8799913,299686.5,"Mexico","Nayarit"
"Pangkalpinang",-2.080042298,106.1500476,99785.5,"Indonesia","Bangka-Belitung"
"Olovyannaya",50.94997662,115.5666304,5281.5,"Russia","Chita"
"Verkhniy Ufaley",56.06627932,60.23130001,33562,"Russia","Chelyabinsk"
"Hunanghua",38.37043439,117.330037,104243,"China","Hebei"
"Tarabuco",-19.18003213,-64.91994979,2364,"Bolivia","Chuquisaca"
"Siwa",29.20001223,25.51667476,23080,"Egypt","Matruh"
"Megion",61.06075482,76.0953446,47650.5,"Russia","Khanty-Mansiy"
"Aracuai",-16.85960529,-42.06994918,15301.5,"Brazil","Minas Gerais"
"Luderitz",-26.64800006,15.15942582,14216,"Namibia","Karas"
"Oktyabrskiy",54.4599691,53.45998205,87793,"Russia","Bashkortostan"
"Trang",7.563400084,99.60801794,103728.5,"Thailand","Trang"
"Vila Velha",-20.36760822,-40.31798893,742413.5,"Brazil","Espírito Santo"
"Mandya",12.57038129,76.91999711,209939.5,"India","Karnataka"
"Valencia",39.48501752,-0.400012046,806652,"Spain","Comunidad Valenciana"
"Curanilahue",-37.48000039,-73.34000431,22352.5,"Chile","Bío-Bío"
"Rochester",43.17042564,-77.61994979,483177,"United States of America","New York"
"Joensuu",62.59998903,29.76664791,53388,"Finland","North Karelia"
"Cuamba",-14.78960244,36.53998124,68204.5,"Mozambique","Nassa"
"Xinxiang",35.32043968,113.8699898,823300.5,"China","Henan"
"Mikumi",-7.399614239,36.98000606,12471,"Tanzania","Morogoro"
"Ubaitaba",-14.30001992,-39.33001306,27411.5,"Brazil","Bahia"
"Novo Horizonte",-21.45958291,-49.2200037,29554,"Brazil","São Paulo"
"Bollnas",61.35200319,16.36658728,12771.5,"Sweden","Gävleborg"
"Myingyan",21.46182823,95.39142777,152762.5,"Myanmar","Mandalay"
"Salcedo",19.38300302,-70.4167015,45299,"Dominican Republic","Hermanas"
"Astrakhan",46.34865541,48.05498897,493363.5,"Russia","Astrakhan'"
"'s-Hertogenbosch",51.68333714,5.316660485,134520,"Netherlands","Noord-Brabant"
"Juina",-11.3995768,-59.50002222,980,"Brazil","Mato Grosso"
"Lobamba",-26.46666746,31.19999711,7169.5,"Swaziland","Manzini"
"Kotabumi",-4.833310935,104.8999947,42366,"Indonesia","Lampung"
"Vyazma",55.21219708,34.29179805,49118.5,"Russia","Smolensk"
"Mazabuka",-15.86002806,27.76000036,57874.5,"Zambia","Southern"
"Valera",9.319959533,-70.6200153,142461.5,"Venezuela","Trujillo"
"Zhangzhou",24.52037539,117.6700162,2434799.5,"China","Fujian"
"Salatiga",-7.309542217,110.4900927,174322.5,"Indonesia","Jawa Tengah"
"Irati",-25.47003579,-50.65996749,41602,"Brazil","Paraná"
"Wabag",-5.490000005,143.7180037,3958,"Papua New Guinea","Enga"
"Syzran",53.16999615,48.47997595,171589,"Russia","Samara"
"Weyburn",49.66656659,-103.8500025,9302.5,"Canada","Saskatchewan"
"Chernihiv",51.50492983,31.3015413,293656.5,"Ukraine","Chernihiv"
"Jiaojing",28.6804057,121.4499922,471152,"China","Zhejiang"
"Otradnyy",53.37781293,51.34739783,46400,"Russia","Samara"
"Aleksin",54.5143327,37.09436601,59194,"Russia","Tula"
"Manzanillo",20.34375694,-77.11664718,107433,"Cuba","Granma"
"Salama",15.10299903,-90.31400061,40000,"Guatemala","Baja Verapaz"
"Lagos de Moreno",21.37041262,-101.9299905,89402,"Mexico","Jalisco"
"May Pen",17.96661521,-77.23328089,89948.5,"Jamaica","Clarendon"
"Huanren",41.25633059,125.3459818,91384,"China","Liaoning"
"Leo",11.09400299,-2.097998529,26884,"Burkina Faso","Sissili"
"Karamken",60.20041974,151.166628,10,"Russia","Maga Buryatdan"
"Otavi",-19.63999801,17.34200155,4562,"Namibia","Otjozondjupa"
"Queenstown",-45.02997882,168.6625109,5332,"New Zealand","Otago"
"Autlan",19.77001935,-104.3699966,44912,"Mexico","Jalisco"
"Alor Setar",6.113307718,100.3729325,276921.5,"Malaysia","Kedah"
"Apatity",67.57307049,33.39304154,64046.5,"Russia","Murmansk"
"Talas",42.51837242,72.24291825,28646,"Kyrgyzstan","Talas"
