"city","latitude","longitude","population","country","province"
"Trujillo",15.9103583,-85.9600092,7366.5,"Honduras","Colón"
"Kyakhta",50.35267458,106.4526648,12368,"Russia","Buryat"
"Haarlem",52.38043194,4.629991006,248773.5,"Netherlands","Noord-Holland"
"Tokmak",42.82987795,75.28459306,87953.5,"Kyrgyzstan","Bishkek"
"Mariental",-24.61959674,17.95992672,12670,"Namibia","Hardap"
"Yamagata",38.27049217,140.3200032,263373.5,"Japan","Yamagata"
"Zalaegerszeg",46.84400103,16.83999959,61898,"Hungary","Zala"
"Imphal",24.79997072,93.95001705,244254.5,"India","Manipur"
"Katerini",40.2723338,22.50249182,50850.5,"Greece","Kentriki Makedonia"
"Totonicapan",14.91399898,-91.35800061,69734,"Guatemala","Totonicapán"
"Ariquemes",-9.939614239,-63.07998458,58096,"Brazil","Rondônia"
"Jakarta",-6.174417705,106.8294376,8832560.5,"Indonesia","Jakarta Raya"
"Pyongyang",39.0194387,125.7546907,2899398.5,"North Korea","P'yongyang"
"Bhairawa",27.53330409,83.38329953,63367,"Nepal","Lumbini"
"Bentiu",9.2333333,29.8333333,7653,"South Sudan","Unity"
"Eumseong",36.93525067,127.6897147,10077,"South Korea","Chungcheongbuk-do"
"Penedo",-10.26961994,-36.58002588,37515.5,"Brazil","Alagoas"
"Palembang",-2.980039043,104.7500297,1595250,"Indonesia","Sumatera Selatan"
"Linden",5.99000775,-58.2699681,28041.5,"Guyana","Upper Takutu-Upper Essequibo"
"Boorama",9.940412617,43.18004106,67664,"Somaliland",""
"Sault Ste. Marie",46.49526145,-84.34527572,50173.5,"United States of America","Michigan"
"Kashi",39.47633588,75.9699259,472069.5,"China","Xinjiang Uygur"
"Comodoro Rivadavia",-45.87003091,-67.49999903,123291,"Argentina","Chubut"
"Zinder",13.79999615,8.983317015,210891,"Niger","Zinder"
"Roebourne",-20.7829317,117.1333048,11281.5,"Australia","Western Australia"
"Mbabane",-26.31665078,31.13333451,83178,"Swaziland","Hhohho"
"Zanesville",39.94028688,-82.01332503,32514,"United States of America","Ohio"
"Hailar",49.19998008,119.7000215,221118.5,"China","Nei Mongol"
"Kovrov",56.36036989,41.33002478,153060,"Russia","Vladimir"
"San Fernando",-34.58002236,-70.98996688,60746,"Chile","Libertador General Bernardo O'Higgins"
"St. John's",47.58498822,-52.68100692,115325.5,"Canada","Newfoundland and Labrador"
"Perugia",43.11037762,12.38998246,141998,"Italy","Umbria"
"Kos",36.89372866,27.28881466,18967.5,"Greece","Notio Aigaio"
"Aarau",47.3900041,8.03400361,15501,"Switzerland","Aargau"
"Nekemte",9.090464497,36.53000769,73018,"Ethiopia","Addis Ababa"
"La Libertad",16.78043439,-90.11998784,8584.5,"Guatemala","Petén"
"Yerevan",40.18115074,44.51355139,1097742.5,"Armenia","Erevan"
"Vientiane",17.96669273,102.59998,662174,"Laos","Vientiane [prefecture]"
"Sokolo",14.73373761,-6.133305503,4251,"Mali","Ségou"
"Nagpur",21.16995974,79.08999385,2341009,"India","Maharashtra"
"San Angelo",31.4640084,-100.4366966,87297.5,"United States of America","Texas"
"Ranchi",23.37000633,85.33002641,945227,"India","Jharkhand"
"Rurrenabaque",-14.46001015,-67.55999536,11749,"Bolivia","La Paz"
"Asmara",15.33333925,38.93332353,592366,"Eritrea","Anseba"
"Bremerhaven",53.55043805,8.579982461,127598.5,"Germany","Bremen"
"Eagle Pass",28.71102399,-100.4892774,39683,"United States of America","Texas"
"Karlskrona",56.20300219,15.29600461,35212,"Sweden","Blekinge"
"Wangdue Prodrang",27.43329603,89.91669667,5000,"Bhutan","Wangdi Phodrang"
"Villa Martin",-20.76655027,-67.7833409,10,"Bolivia","Potosí"
"Springfield",39.92000388,-83.799986,74450.5,"United States of America","Ohio"
"Mojokerto",-7.469584128,112.4299743,112557,"Indonesia","Jawa Timur"
"Artemisa",22.81339947,-82.76188399,46024.5,"Cuba","La Habana"
"Shebekino",50.4143504,36.89437821,41301.5,"Russia","Belgorod"
"Debre Markos",10.33997479,37.72001257,65339,"Ethiopia","Amhara"
"Stockholm",59.35075995,18.09733473,1258654.5,"Sweden","Stockholm"
"Ensenada",31.86997845,-116.6199982,238751,"Mexico","Baja California"
"Dagupan",16.04789512,120.3408093,163676,"Philippines","Pangasinan"
"Megion",61.06075482,76.0953446,47650.5,"Russia","Khanty-Mansiy"
"Juiz de Fora",-21.77000324,-43.3749858,464764.5,"Brazil","Minas Gerais"
"Fada Ngourma",12.05499605,0.360999451,33910,"Burkina Faso","Gourma"
"Ongwediva",-17.78001422,15.77003454,17343,"Namibia","Oshana"
"Santa Ana",13.9946096,-89.55976363,205569.5,"El Salvador","Santa Ana"
"Kualakapuas",-3.099618308,114.3500122,18512.5,"Indonesia","Kalimantan Tengah"
"Caluula",11.96695559,50.75001827,513,"Somalia","Bari"
"Nyanza",-2.349586569,29.74003454,225209,"Rwanda","Southern"
"Ziniare",12.57699605,-1.293002442,12703,"Burkina Faso","Oubritenga"
"Phyarpon",16.29325482,95.68288285,63177,"Myanmar","Ayeyarwady"
"Bo",7.970016092,-11.74001754,170690.5,"Sierra Leone","Southern"
"Jaragua do Sul",-26.47999998,-49.09998519,128803.5,"Brazil","Santa Catarina"
"Januaria",-15.47999957,-44.36998967,25753,"Brazil","Minas Gerais"
"Kenema",7.880409158,-11.18997359,133918.5,"Sierra Leone","Eastern"
"Corumba",-19.01601113,-57.65000594,70035.5,"Brazil","Mato Grosso do Sul"
"Xiamen",24.44999208,118.080017,1548668.5,"China","Fujian"
"Chitre",7.970016092,-80.42003727,44024,"Panama","Herrera"
"San Francisco Gotera",13.69999812,-88.10000052,16152,"El Salvador","Morazán"
"As Sidr",30.67041343,18.26662634,50,"Libya","Surt"
"New Amsterdam",6.250017719,-57.52998743,40956.5,"Guyana","Essequibo Islands-West Demerara"
"Qurghonteppa",37.83731447,68.77134721,188287,"Tajikistan","Khatlon"
"As Sib",23.68024579,58.18253617,237816,"Oman","Muscat"
"Zrenjanin",45.3786371,20.39946773,64053,"Serbia","Srednje-Banatski"
"Puerto Berrio",6.480442931,-74.42001591,33194,"Colombia","Antioquia"
"Andorra",42.50000144,1.516485961,38127,"Andorra",""
"Mazatlan",23.22110069,-106.4200007,361460.5,"Mexico","Sinaloa"
"Lewiston",46.41660992,-117.016589,40096.5,"United States of America","Idaho"
"Agri",39.71983522,43.05131506,87854,"Turkey","Agri"
"Lehututu",-23.96961058,21.87002397,1942,"Botswana","Kgalagadi"
"Porlamar",10.9603762,-63.84998926,142027,"Venezuela","Nueva Esparta"
"Dolbeau",48.86658958,-72.23332768,13126.5,"Canada","Québec"
"Alausi",-2.18995807,-78.84997807,14294,"Ecuador","Chimborazo"
"Pizen",49.74043805,13.36000077,161043,"Czech Republic","Karlovarský"
"En Nuhud",12.69042564,28.42001176,84623.5,"Sudan","South Kordofan"
"Malang",-7.97999225,112.610015,775858,"Indonesia","Jawa Timur"
"Korosten",50.95041587,28.65002356,68992,"Ukraine","Zhytomyr"
"Pokhara",28.26399603,83.97199855,2e+05,"Nepal","Gorkha"
"Severnyy",67.60828798,64.12325883,11562,"Russia","Komi"
"Novo Airao",-2.620784486,-60.94378422,9049,"Brazil","Amazonas"
"Bellingham",48.76013613,-122.4869269,86565.5,"United States of America","Washington"
"Iguala",18.37000144,-99.53998133,110641.5,"Mexico","Guerrero"
"Lorica",9.241850605,-75.81600305,46688,"Colombia","Córdoba"
"Lander",42.83300437,-108.7325985,6742,"United States of America","Wyoming"
