"city","latitude","longitude","population","country","province"
"Macheng",31.17999473,115.0300223,126366,"China","Hubei"
"Constantine",36.35998863,6.599948281,527638,"Algeria","Constantine"
"Chachapoyas",-6.229608135,-77.87001205,23128.5,"Peru","Amazonas"
"Merida",8.399989847,-71.13001001,275184,"Venezuela","Mérida"
"Rostov",57.18915651,39.40430253,33578,"Russia","Yaroslavl'"
"Swellendam",-34.01959145,20.4300085,8954,"South Africa","Western Cape"
"Pattani",6.864003023,101.2500006,96815.5,"Thailand","Pattani"
"Pathum Thani",14.01711468,100.5333361,154412,"Thailand","Pathum Thani"
"Chengde",40.96037966,117.9300004,377629,"China","Hebei"
"Charleville",-26.40000486,146.2500288,1900,"Australia","Queensland"
"Trincomalee",8.568999036,81.23300155,108420,"Sri Lanka","Trincomalee"
"Pskov",57.82999595,28.32993974,189979.5,"Russia","Pskov"
"Arras",50.28332481,2.783333698,55608.5,"France","Nord-Pas-de-Calais"
"Oran",35.71000246,-0.61997278,721992,"Algeria","Oran"
"Muynoq",43.76832196,59.0213997,13000,"Uzbekistan","Karakalpakstan"
"Dera Ismail Khan",31.82899904,70.89855587,66676.5,"Pakistan","Khyber-Pakhtunkhwa"
"Wonju",37.35514752,127.9396219,240898,"South Korea","Gangwon-do"
"Dosso",13.05001609,3.200000772,46481.5,"Niger","Dosso"
"Pasto",1.21360679,-77.28110742,371138.5,"Colombia","Nariño"
"Mukhomornoye",66.4170687,173.333337,55,"Russia","Chukchi Autonomous Okrug"
"Charleston",32.79237693,-79.99210474,254295,"United States of America","South Carolina"
"Thai Nguyen",21.59995933,105.8300154,415000,"Vietnam","Thái Nguyên"
"Coronel Suarez",-37.46661619,-61.9166189,20713,"Argentina","Ciudad de Buenos Aires"
"Sebba",13.4364122,0.530443,3273,"Burkina Faso","Yagha"
"Sikonge",-5.629541403,32.77003048,14549.5,"Tanzania","Tabora"
"Urgut",39.40070742,67.26069006,73524,"Uzbekistan","Samarkand"
"Gore",8.148996048,35.53700451,9352,"Ethiopia","Addis Ababa"
"Singkawang",0.911980927,108.9654697,174925,"Indonesia","Kalimantan Barat"
"Izmayil",45.35034426,28.83735063,82839.5,"Ukraine","Odessa"
"Sept-Iles",50.31608767,-66.36001693,25686,"Canada","Québec"
"Markala",13.67036582,-6.069950197,46161.5,"Mali","Ségou"
"Boulder City",35.97895245,-114.8315802,15072.5,"United States of America","Nevada"
"Abaza",52.66901898,90.09536861,17638.5,"Russia","Khakass"
"Khanty Mansiysk",61.00153363,69.00151404,48114,"Russia","Khanty-Mansiy"
"Upata",8.020426452,-62.40999964,53474.5,"Venezuela","Bolívar"
"Orsha",54.51531455,30.42154333,130276.5,"Belarus","Vitsyebsk"
"Perito Moreno",-46.60001219,-70.93335535,3766,"Argentina","Santa Cruz"
"Mazabuka",-15.86002806,27.76000036,57874.5,"Zambia","Southern"
"Bagdarin",54.43330406,113.6000321,4676,"Russia","Buryat"
"Ishim",56.15022768,69.44980709,60798,"Russia","Tyumen'"
"Reggio di Calabria",38.11499778,15.64136023,179034.5,"Italy","Calabria"
"Kielce",50.8903937,20.6600203,212165.5,"Poland","Swietokrzyskie"
"Vilnius",54.68336631,25.31663529,524697.5,"Lithuania","Vilniaus"
"Mikkeli",61.68999617,27.28500348,46550,"Finland","Southern Savonia"
"Si Racha",13.15902753,100.9286608,94204.5,"Thailand","Chon Buri"
"Tasiilaq",65.60186934,-37.6337371,1829,"Greenland",""
"Reims",49.25039044,4.029975951,177939,"France","Champagne-Ardenne"
"Sumter",33.92065432,-80.34172164,27012,"United States of America","South Carolina"
"Moratuwa",6.780398782,79.88002315,188595,"Sri Lanka","Colombo"
"Magdagachi",53.44997906,125.8000109,8070.5,"Russia","Amur"
"Tougan",13.06899899,-3.069998409,17590,"Burkina Faso","Sourou"
"Piso Firme",-13.68295164,-61.86662195,72,"Bolivia","Santa Cruz"
"Tikhvin",59.64484641,33.51437781,50793,"Russia","Leningrad"
"Severouralsk",60.15652061,59.96154903,34819,"Russia","Sverdlovsk"
"Girardot",4.310006937,-74.80999211,121830.5,"Colombia","Cundinamarca"
"Wonthaggi",-38.60949217,145.5900175,4471.5,"Australia","Victoria"
"Bahraich",27.62041872,81.66993974,182218,"India","Uttar Pradesh"
"Kingsville",27.51595481,-97.8558464,24560.5,"United States of America","Texas"
"Macae",-22.37999184,-41.78999211,133083,"Brazil","Rio de Janeiro"
"Lagunas",-20.98286782,-69.68330245,10,"Chile","Tarapacá"
"Xilinhot",43.94433189,116.0443274,116156.5,"China","Nei Mongol"
"Tampico",22.30001996,-97.87000574,578351.5,"Mexico","Tamaulipas"
"La Sarre",48.8000045,-79.20003422,6366.5,"Canada","Québec"
"Ciudad Camargo",27.69041445,-105.1700511,35904.5,"Mexico","Chihuahua"
"Matagami",49.75038576,-77.63328231,1574.5,"Canada","Québec"
"Nueva Gerona",21.88371462,-82.79999536,22915,"Cuba","Isla de la Juventud"
"Zenica",44.21997398,17.91998083,151388,"Bosnia and Herzegovina","Zenica-Doboj"
"Ratlam",23.35039512,75.02998328,272036,"India","Madhya Pradesh"
"Ittoqqortoormiit",70.48335797,-21.9666543,469,"Greenland","Kommuneqarfik Sermersooq"
"Fulacunda",11.77299899,-15.19499654,1311,"Guinea Bissau","Quinara"
"Fort Shevchenko",44.51706179,50.26663692,3236,"Kazakhstan","Mangghystau"
"Kumba",4.640374368,9.439981647,131122,"Cameroon","Sud-Ouest"
"Alatyr",54.8503587,46.59998734,44291.5,"Russia","Chuvash"
"Naples",26.14205935,-81.79499211,141902,"United States of America","Florida"
"Hims",34.72995892,36.72002193,890202,"Syria","Homs (Hims)"
"Guwahati",26.16001691,91.76999508,500258,"India","Assam"
"Hohhot",40.81997479,111.6599955,1250238.5,"China","Nei Mongol"
"Buea",4.155003087,9.231003513,90088,"Cameroon","Sud-Ouest"
"Dingzhou",38.50042645,114.9999983,152934,"China","Hebei"
"San Luis Obispo",35.28318097,-120.6585889,54759,"United States of America","California"
"Chaiyaphum",15.8040082,102.0386189,55191,"Thailand","Chaiyaphum"
"Verkhoyansk",67.54470013,133.3849743,1388,"Russia","Sakha (Yakutia)"
"Patra",38.23000368,21.72998083,159579.5,"Greece","Dytiki Ellada"
"Atikokan",48.75039512,-91.61658899,3625,"Canada","Ontario"
"Ipu",-4.319595521,-40.72005742,14479.5,"Brazil","Ceará"
"Naberezhnyye Chelny",55.69999676,52.31994828,461086,"Russia","Tatarstan"
"Okayama",34.67202964,133.9170865,752872,"Japan","Okayama"
"Totonicapan",14.91399898,-91.35800061,69734,"Guatemala","Totonicapán"
"Mitzik",0.78371055,11.56662187,3998.5,"Gabon","Wouleu-Ntem"
"Presidencia Roque Saenz Pena",-26.7900069,-60.45001591,75958,"Argentina","Chaco"
"San Ignacio",-16.36960936,-60.96001062,24480,"Bolivia","Santa Cruz"
"Aveiro",40.64100311,-8.650997534,54162,"Portugal","Aveiro"
"Gimbi",9.167023131,35.83330603,22423.5,"Ethiopia","Addis Ababa"
"Tumut",-35.30959023,148.2200378,4873,"Australia","New South Wales"
"Hughenden",-20.85000771,144.2000248,421,"Australia","Queensland"
"Kabalo",-6.049619121,26.91002641,21851,"Congo (Kinshasa)","Katanga"
"Xinguara",-7.100614401,-49.94804712,4047,"Brazil","Pará"
"Kissidougou",9.190458393,-10.12001306,56957,"Guinea","Faranah"
"New Bedford",41.6561253,-70.94469833,115082.5,"United States of America","Massachusetts"
"Nanyang",33.00040041,112.5300199,1097766,"China","Henan"
