"city","latitude","longitude","population","country","province"
"Tokat",40.30599617,36.56300452,129702,"Turkey","Tokat"
"Chelyuskin",77.71697329,104.2500085,885,"Russia","Taymyr"
"Recife",-8.075645326,-34.91560551,2564549,"Brazil","Pernambuco"
"Panama City",30.15861005,-85.65527328,68852.5,"United States of America","Florida"
"Guaratingueta",-22.81996499,-45.18999129,154730,"Brazil","São Paulo"
"Hasselt",50.96400317,5.483997561,69222,"Belgium","Limburg"
"Yendi",9.433725198,-0.016650433,30841.5,"Ghana","Northern"
"Umba",66.68139366,34.34554154,6128,"Russia","Murmansk"
"Diebougou",10.95200113,-3.248000411,12732,"Burkina Faso","Bougouriba"
"Puerto Pinasco",-22.64002765,-57.7899974,473.5,"Paraguay","Presidente Hayes"
"Sanya",18.25910454,109.5040317,253721,"China","Hainan"
"Saint-Louis",16.01998985,-16.51001062,198396,"Mauritania","Trarza"
"Corner Brook",48.94999534,-57.93334782,19742,"Canada","Newfoundland and Labrador"
"Dong Ha",16.8499981,107.1333007,17662,"Vietnam","Quảng Trị "
"Soubre",5.790407531,-6.610020591,83712.5,"Ivory Coast","Bas-Sassandra"
"Nashville",36.16997438,-86.77998499,703926,"United States of America","Tennessee"
"Santiago Tuxtla",18.47038291,-95.29998173,13598,"Mexico","Veracruz"
"Shishmaref",66.25697512,-166.0718893,254,"United States of America","Alaska"
"Alekseyevka",50.65348309,38.69307979,38633.5,"Russia","Belgorod"
"Kakonko",-3.279607321,30.96001176,16319,"Tanzania","Kigoma"
"Shumen",43.27000612,26.92935339,75487.5,"Bulgaria","Shumen"
"Salalah",17.02545819,54.08521521,183508.5,"Oman","Dhofar"
"Sotik",-0.679559307,35.12001623,36942.5,"Kenya","Rift Valley"
"Timisoara",45.75882062,21.22344844,309575,"Romania","Timis"
"Salsk",46.4775106,41.5420015,54739,"Russia","Rostov"
"Tadmur",34.55040916,38.28333736,53063,"Syria","Homs (Hims)"
"Segezha",63.75477643,34.32430253,28961,"Russia","Karelia"
"Besalampy",-16.74953449,44.48332068,1022,"Madagascar","Mahajanga"
"Miahuatlan",16.32999676,-96.60000574,16661.5,"Mexico","Oaxaca"
"Banghazi",32.11673342,20.06672318,881187,"Libya","Benghazi"
"Aksu",41.15000633,80.25002641,309704.5,"China","Xinjiang Uygur"
"Maldonado",-34.91002806,-54.95998926,51877.5,"Uruguay","Maldonado"
"Hangzhou",30.24997398,120.1700187,2442564.5,"China","Zhejiang"
"Aurora",39.69585736,-104.808497,431966.5,"United States of America","Colorado"
"Atikokan",48.75039512,-91.61658899,3625,"Canada","Ontario"
"Fatick",14.3440021,-16.41599952,24243,"Senegal","Fatick"
"Antigua Guatemala",14.5666981,-90.73330161,39368,"Guatemala","Sacatepéquez"
"Farmington",36.75415061,-108.1860944,42917.5,"United States of America","New Mexico"
"Sambava",-14.26617186,50.16659135,37493.5,"Madagascar","Antsiranana"
"Iguape",-24.72000405,-47.56994938,23602.5,"Brazil","São Paulo"
"Presidencia Roque Saenz Pena",-26.7900069,-60.45001591,75958,"Argentina","Chaco"
"Lumphat",13.50700214,106.9810026,19205,"Cambodia","Rôtânôkiri"
"Papasquiaro",24.83040814,-105.3399891,11635.5,"Mexico","Durango"
"Weihai",37.49997072,122.0999784,356425,"China","Shandong"
"Seattle",47.57000205,-122.339985,1821684.5,"United States of America","Washington"
"Mbabane",-26.31665078,31.13333451,83178,"Swaziland","Hhohho"
"Ratchaburi",13.54189821,99.82154496,99722,"Thailand","Ratchaburi"
"Moranbah",-22.00156533,148.0380334,7357,"Australia","Queensland"
"As Sulayyil",20.462251,45.57224646,20858.5,"Saudi Arabia","Ar Riyad"
"Middelburg",-25.75963051,29.47002519,124248,"South Africa","Mpumalanga"
"Golyshmanovo",56.3819448,68.37147497,8708.5,"Russia","Tyumen'"
"Kingston South East",-36.83280475,139.8500577,206,"Australia","South Australia"
"Eseka",3.650408955,10.76661902,14102,"Cameroon","Centre"
"Perabumulih",-3.443163229,104.2314567,83754,"Indonesia","Sumatera Selatan"
"Villamontes",-21.24956989,-63.50001062,18761,"Bolivia","Tarija"
"Villalonga",-39.88285114,-62.58332239,2838,"Argentina","Ciudad de Buenos Aires"
"Nueve de Julio",-35.44596434,-60.88998906,26716,"Argentina","Ciudad de Buenos Aires"
"Hamilton",-37.73119953,142.0234135,6992.5,"Australia","Victoria"
"Ganca",40.68499595,46.35002844,301699.5,"Azerbaijan","Ganca"
"Killarney",52.05040041,-9.516664878,9601,"Ireland","Kerry"
"Satadougou",12.61699343,-11.4066012,706,"Mali","Kayes"
"Otar",43.53458946,75.2138997,11238,"Kazakhstan","Almaty"
"Ndalatando",-9.299549948,14.90998368,8144,"Angola","Cuanza Norte"
"Biloela",-24.39356403,150.4960746,4366.5,"Australia","Queensland"
"Wurzburg",49.80043439,9.950028034,151146,"Germany","Bayern"
"Kampene",-3.599536114,26.67004106,19719.5,"Congo (Kinshasa)","Maniema"
"Sumbe",-11.21002765,13.8499967,29638.5,"Angola","Cuanza Sul"
"Dubrovnik",42.66094769,18.09139156,32711,"Croatia","Dubrovacko-Neretvanska"
"Escuintla",15.33000612,-92.62998967,58313.5,"Mexico","Chiapas"
"Ahuachapan",13.91900399,-89.84500155,34102,"El Salvador","Ahuachapán"
"Muramvya",-3.260997006,29.61199862,18041,"Burundi","Muramvya"
"Schenectady",42.81458173,-73.93996769,104767.5,"United States of America","New York"
"Gijon",43.53001609,-5.670000449,303712,"Spain","Principado de Asturias"
"Krasnoyarsk",56.01398277,92.86600053,613605,"Russia","Krasnoyarsk"
"Fayetteville",36.06297833,-94.15720911,108267.5,"United States of America","Arkansas"
"Dire Dawa",9.58999473,41.86001827,250325.5,"Ethiopia","Dire Dawa"
"Charters Towers",-20.08090737,146.2587105,8369.5,"Australia","Queensland"
"Chirala",15.86041302,80.33999508,170000.5,"India","Andhra Pradesh"
"Xuzhou",34.28001223,117.1800203,1645096.5,"China","Jiangsu"
"Reading",51.46997072,-0.980028322,257752,"United Kingdom","Oxfordshire"
"Tingo Maria",-9.289628073,-75.9899976,36138.5,"Peru","Huánuco"
"Dyatkovo",53.5891437,34.33918534,33363.5,"Russia","Bryansk"
"Paso Robles",35.6265967,-120.6899823,26221,"United States of America","California"
"Ponta Pora",-22.53000853,-55.7299681,75047,"Brazil","Mato Grosso do Sul"
"Bielefeld",52.02998822,8.530011351,311739.5,"Germany","Nordrhein-Westfalen"
"Sarnia",42.96663963,-82.3999681,113585,"Canada","Ontario"
"Arak",25.2799931,3.749993041,423251,"Algeria","Tamanghasset"
"Yuzhno Sakhalinsk",46.96497438,142.7400105,174685,"Russia","Sakhalin"
"Bollnas",61.35200319,16.36658728,12771.5,"Sweden","Gävleborg"
"Johnson City",36.31332481,-82.35361434,68070.5,"United States of America","Tennessee"
"Gilgit",35.91709576,74.30000199,124196.5,"Pakistan","Northern Areas"
"Bumba",2.189981302,22.45996212,128029.5,"Congo (Kinshasa)","Équateur"
"Anshan",41.11502138,122.9400305,1419137.5,"China","Liaoning"
"Tiraspol",46.85309491,29.63998897,137097,"Moldova","Bender"
"Ironwood",46.4558065,-90.15939112,6400,"United States of America","Michigan"
"Homer",59.64293439,-151.5482797,5021.5,"United States of America","Alaska"
"Kattaqorgon",39.90070274,66.2607511,153247.5,"Uzbekistan","Samarkand"
"Kemijarvi",66.66666587,27.41666215,8883,"Finland","Lapland"
"Tashkent",41.31170188,69.29493282,2081014,"Uzbekistan","Tashkent"
"Cuernavaca",18.92110476,-99.23999964,591551.5,"Mexico","Morelos"
