"city","latitude","longitude","population","country","province"
"Frankfort",38.2008065,-84.87335718,32214.5,"United States of America","Kentucky"
"Pirapora",-17.33001585,-44.92998132,55910,"Brazil","Minas Gerais"
"Tame",6.460340799,-71.74002446,25030,"Colombia","Arauca"
"Sitia",35.20042116,26.09855139,8770,"Greece","Kriti"
"Kushiro",42.97495953,144.3746911,191089,"Japan","Hokkaido"
"Crookston",47.77376223,-96.60773137,8215.5,"United States of America","Minnesota"
"Karasburg",-28.01959593,18.73998246,5071.5,"Namibia","Karas"
"Port Moresby",-9.464707826,147.1925036,267434.5,"Papua New Guinea","Central"
"Mossel Bay",-34.17002155,22.1300081,16743,"South Africa","Western Cape"
"Pecos",31.41579429,-103.4998947,7991,"United States of America","Texas"
"Belo Horizonte",-19.91502602,-43.91500452,3974112,"Brazil","Minas Gerais"
"Carahue",-38.70948606,-73.16998885,8592,"Chile","La Araucanía"
"Obihiro",42.93041445,143.1700101,169614,"Japan","Hokkaido"
"Cojutepeque",13.71670204,-88.9333016,48411,"El Salvador","Cuscatlán"
"Aleppo",36.22997072,37.1700203,2170132,"Syria","Aleppo (Halab)"
"Kouvola",60.87600009,26.70900351,31133,"Finland","Southern Finland"
"Aboa Station",-75.04959349,-13.41671106,15,"Antarctica",""
"Mount Barker",-34.632784,117.6666056,1771.5,"Australia","Western Australia"
"Ciudad del Este",-25.51669961,-54.61605676,320872,"Paraguay","Alto Paraná"
"Aalborg",57.03371381,9.916593382,111917.5,"Denmark","Nordjylland"
"Geraldton",49.71664105,-86.96664026,1290,"Canada","Ontario"
"Masjed Soleyman",31.97999758,49.2999259,132586.5,"Iran","Khuzestan"
"Balsas",-7.520020326,-46.04999048,39761.5,"Brazil","Maranhão"
"Sept-Iles",50.31608767,-66.36001693,25686,"Canada","Québec"
"Indore",22.71505922,75.86502274,1931520.5,"India","Madhya Pradesh"
"Queretaro",20.63001853,-100.3799817,786392.5,"Mexico","Querétaro"
"Marbella",36.51661989,-4.88333012,153069.5,"Spain","Andalucía"
"Qurghonteppa",37.83731447,68.77134721,188287,"Tajikistan","Khatlon"
"Toconao",-23.18288857,-68.01663416,378,"Chile","Antofagasta"
"Tanacross",63.38570335,-143.346403,136,"United States of America","Alaska"
"Itupiranga",-5.120011781,-49.30002466,21301,"Brazil","Pará"
"Eisenstadt",47.83329908,16.53329747,13165,"Austria","Burgenland"
"Bairnsdale",-37.82959145,147.6099975,9427,"Australia","Victoria"
"Vientiane",17.96669273,102.59998,662174,"Laos","Vientiane [prefecture]"
"Bella Bella",52.14840476,-128.1172809,1400,"Canada","British Columbia"
"Bafia",4.750393493,11.23000159,41201,"Cameroon","Centre"
"Genoa",44.40998822,8.930038614,624724,"Italy","Liguria"
"Greeley",40.41919822,-104.739974,106142.5,"United States of America","Colorado"
"Fort Severn",55.98333864,-87.64998356,125,"Canada","Ontario"
"Homer",59.64293439,-151.5482797,5021.5,"United States of America","Alaska"
"Wau",7.699980895,27.98996049,99158,"South Sudan","West Bahr-al-Ghazal"
"Bontang",0.133259297,117.5000008,101691,"Indonesia","Kalimantan Timur"
"Varamin",35.31658978,51.64660437,172215,"Iran","Tehran"
"Huangyan",28.65001996,121.2500044,174580.5,"China","Zhejiang"
"Penticton",49.50037518,-119.5832799,34035,"Canada","British Columbia"
"Niagara Falls",43.09482302,-79.0369434,117567,"United States of America","New York"
"Sarande",39.87700212,19.99999859,15147,"Albania","Vlorë"
"Ferrenafe",-6.629997133,-79.80002344,42270.5,"Peru","Lambayeque"
"Upper Hutt",-41.13548786,175.0290474,34591,"New Zealand","Manawatu-Wanganui"
"Chadron",42.82791424,-103.0030774,5686.5,"United States of America","Nebraska"
"Zaria",11.0799813,7.710009724,754836.5,"Nigeria","Kaduna"
"Morawa",-29.21626707,116.0000406,259,"Australia","Western Australia"
"Igloolik",69.25653506,-81.79359213,1612,"Canada","Nunavut"
"Larissa",39.63040916,22.42001623,120122.5,"Greece","Thessalia"
"Abai",-26.0295882,-55.94000696,2788.5,"Paraguay","Caazapá"
"Leeuwarden",53.25037884,5.783357298,108601,"Netherlands","Friesland"
"Toamasina",-18.18179848,49.40498409,208299.5,"Madagascar","Toamasina"
"Aleysk",52.49176882,82.77767574,22477.5,"Russia","Altay"
"Umtata",-31.57999876,28.79001501,108217.5,"South Africa","Eastern Cape"
"Quezon City",14.6504352,121.0299662,2761720,"Philippines","Metropolitan Manila"
"Wonsan",39.16048952,127.4308158,322425,"North Korea","Kangwon-do"
"Yerevan",40.18115074,44.51355139,1097742.5,"Armenia","Erevan"
"Belem",-1.450003236,-48.48002303,1787368.5,"Brazil","Pará"
"Tianshui",34.60001853,105.9199841,649883.5,"China","Gansu"
"Ninh Binh",20.25430503,105.9750195,130517,"Vietnam","Ninh Bình"
"Tsavo",-2.982777894,38.46663367,414,"Kenya","Coast"
"Douliou",23.7075,120.5438889,105688,"Taiwan","Yunlin"
"Trinidad",-14.83337238,-64.89997685,69333.5,"Bolivia","El Beni"
"Sokolo",14.73373761,-6.133305503,4251,"Mali","Ségou"
"Wellington",-41.29997394,174.7832743,296300,"New Zealand","Manawatu-Wanganui"
"Teluk Intan",4.01185976,101.0314453,82506,"Malaysia","Perak"
"Wukari",7.870409769,9.780012572,74380.5,"Nigeria","Taraba"
"Taza",34.22037762,-4.019971966,170761.5,"Morocco","Taza - Al Hoceima - Taounate"
"Concord",43.20807192,-71.53804712,42646.5,"United States of America","New Hampshire"
"Muconda",-10.59962563,21.31998002,2324,"Angola","Lunda Sul"
"Kartaly",53.04739382,60.6819185,27107,"Russia","Chelyabinsk"
"Honda",5.190340799,-74.74999577,31813.5,"Colombia","Tolima"
"Ust Kut",56.76497052,105.7599939,25388,"Russia","Irkutsk"
"Cap-Haitien",19.7592224,-72.21251602,208151,"Haiti","Nord"
"Linxi",43.51707115,118.0333016,679,"China","Nei Mongol"
"Ciudad Bolivar",8.099982319,-63.60000452,317971.5,"Venezuela","Bolívar"
"Tahoua",14.89998069,5.259926716,98190.5,"Niger","Tahoua"
"Quanzhou",24.9000163,118.5799865,823571.5,"China","Fujian"
"Babati",-4.219549948,35.75000362,19117,"Tanzania","Arusha"
"Sao Francisco do Sul",-26.23960122,-48.59998987,24354.5,"Brazil","Santa Catarina"
"Ruzayevka",54.06433433,44.92437903,44635,"Russia","Mordovia"
"La Oroya",-11.52003457,-75.94000065,33345,"Peru","Junín"
"Linares",38.08332013,-3.633354738,49549.5,"Spain","Andalucía"
"Showa Station",-69.03039249,39.7460831,50,"Antarctica",""
"Alvorada",-12.47000242,-49.08200179,9273,"Brazil","Tocantins"
"Gandhinagar",23.30039817,72.63994828,195891,"India","Dadra and Nagar Haveli"
"Kasane",-17.80957314,25.15003048,7774.5,"Botswana","North-West"
"Middelburg",-31.50000364,25.00998734,10964,"South Africa","Eastern Cape"
"Gent",51.02999758,3.700021931,337914.5,"Belgium","East Flanders"
"San Luis",16.2000047,-89.4400035,69623,"Guatemala","Petén"
"Bol'sheretsk",52.43898134,156.3593859,10,"Russia","Kamchatka"
"Dickinson",46.88399742,-102.7888011,15987.5,"United States of America","North Dakota"
"Springbok",-29.66673053,17.88329057,6623.5,"South Africa","Northern Cape"
"Nebbi",2.4758333,31.1025,30354,"Uganda","Nebbi"
"Hyderabad",25.379987,68.37498897,1422665,"Pakistan","Sind"
