"city","latitude","longitude","population","country","province"
"Camrose",53.01669802,-112.8166386,15747,"Canada","Alberta"
"Bhilwara",25.35042808,74.6350203,358171,"India","Rajasthan"
"Port Burwell",60.26646222,-64.74109766,2762,"Canada","Newfoundland and Labrador"
"Juan Aldama",24.29041526,-103.3899789,13117.5,"Mexico","Zacatecas"
"Camaguey",21.38082542,-77.91693425,321583.5,"Cuba","Camagüey"
"Kollam",8.900372741,76.56999263,394163,"India","Kerala"
"Kaya",13.09037539,-1.090047446,39623,"Burkina Faso","Sanmatenga"
"Slantsy",59.11159731,28.07465816,27479,"Russia","Leningrad"
"Berbera",10.43555035,45.01641475,178407,"Somaliland",""
"Pilot Point",57.56455996,-157.5691266,68,"United States of America","Alaska"
"Jhansi",25.45295412,78.55746822,619710.5,"India","Uttar Pradesh"
"Lausanne",46.53042727,6.650022744,191226.5,"Switzerland","Vaud"
"Tidore",0.696377379,127.4359834,60611,"Indonesia","Maluku Utara"
"Zalantun",48.00000165,122.7199922,135128,"China","Nei Mongol"
"Tacna",-18.00000079,-70.25001205,261042.5,"Peru","Tacna"
"Eldorado",-26.20001707,-54.59998539,17365,"Argentina","Misiones"
"Windorah",-25.43324217,142.6501969,158,"Australia","Queensland"
"Cottbus",51.7704175,14.32996741,94910.5,"Germany","Brandenburg"
"Nongan",44.43040041,125.1700752,141482,"China","Jilin"
"Hoonah",58.11540489,-135.438617,361,"United States of America","Alaska"
"Nanuque",-17.83995888,-40.35002832,27210.5,"Brazil","Minas Gerais"
"Prince Rupert",54.31667035,-130.3299882,14708,"Canada","British Columbia"
"Popondetta",-8.769194724,148.2484082,25192,"Papua New Guinea","Northern"
"Zaporizhzhya",47.85729718,35.17680863,600778.5,"Ukraine","Zaporizhzhya"
"Portimao",37.13373985,-8.533314048,49856.5,"Portugal","Faro"
"Illapel",-31.62960814,-71.17000757,24578,"Chile","Coquimbo"
"Kolar",13.13370607,78.13335974,135533,"India","Karnataka"
"Nikolski",52.93843406,-168.8676876,18,"United States of America","Alaska"
"Jatai",-17.87959471,-51.75000431,57135,"Brazil","Goiás"
"Turgay",49.62600011,63.49899651,5277,"Kazakhstan","Qostanay"
"Ar Ramadi",33.42001304,43.29998205,284830,"Iraq","Al-Anbar"
"Haeju",38.039421,125.7143831,223313.5,"North Korea","Hwanghae-namdo"
"Goba",7.010023009,39.97000443,33197,"Ethiopia","Addis Ababa"
"Linkoping",58.41001223,15.62993974,94111.5,"Sweden","Östergötland"
"Arusha",-3.36001585,36.66999914,330605,"Tanzania","Arusha"
"Changling",44.26999676,123.9899922,46703.5,"China","Jilin"
"Saint John",45.26704185,-66.07667505,71153,"Canada","New Brunswick"
"Oldenburg",53.1299986,8.220004434,163338,"Germany","Niedersachsen"
"Lemosos",34.67541445,33.0333219,149486,"Cyprus","Limassol"
"Safford",32.83382143,-109.7068801,9746.5,"United States of America","Arizona"
"Mar de Ajo",-36.71622272,-56.67660283,13610,"Argentina","Ciudad de Buenos Aires"
"Rasht",37.29998293,49.62998328,544737.5,"Iran","Gilan"
"Zwolle",52.52400009,6.096996529,111805,"Netherlands","Overijssel"
"Kandi",11.13036582,2.940016641,73483,"Benin","Alibori"
"Ulm",48.40039064,9.999999144,146703,"Germany","Baden-Württemberg"
"Tres Arroyos",-38.3699719,-60.26994938,34773.5,"Argentina","Ciudad de Buenos Aires"
"Medicine Hat",50.03331423,-110.6833322,58382,"Canada","Alberta"
"Marbella",36.51661989,-4.88333012,153069.5,"Spain","Andalucía"
"Hyderabad",17.39998313,78.47995357,4986908,"India","Andhra Pradesh"
"Hindupur",13.78035911,77.48998816,150805,"India","Andhra Pradesh"
"Orangeville",43.91707257,-80.08333948,30812,"Canada","Ontario"
"Logan",41.73593955,-111.8335979,58664,"United States of America","Utah"
"Tobol",52.69800946,62.57492956,3913.5,"Kazakhstan","Qostanay"
"Xian",34.27502545,108.8949963,3617406,"China","Shaanxi"
"Upington",-28.46003416,21.23001135,62086,"South Africa","Northern Cape"
"Goondiwindi",-28.55480874,150.325284,4251,"Australia","New South Wales"
"Bathurst",47.59997438,-65.64998275,5303.5,"Canada","New Brunswick"
"Cadillac",44.25121238,-85.41360844,12177.5,"United States of America","Michigan"
"Escuintla",14.30040489,-90.77999923,105401.5,"Guatemala","Escuintla"
"Chilca",-12.5196118,-76.73997766,6556,"Peru","Lima"
"Luiana",-17.36954832,22.99998083,150,"Angola","Cuando Cubango"
"Samandagi",36.11705772,35.93329993,93638,"Turkey","Hatay"
"Imbituba",-28.22960895,-48.66001205,28380,"Brazil","Santa Catarina"
"Mahabad",36.77037701,45.72004106,153428.5,"Iran","West Azarbaijan"
"Coral Gables",25.71541872,-80.29107874,98700.5,"United States of America","Florida"
"Kaesong",37.96399925,126.5644087,305333.5,"North Korea","Kaesong"
"Staraya Russa",57.99476625,31.35435461,32591.5,"Russia","Novgorod"
"Chernihiv",51.50492983,31.3015413,293656.5,"Ukraine","Chernihiv"
"Livingstone",-17.86000934,25.86001298,137341.5,"Zambia","Southern"
"Santa Rosa",-27.86952757,-54.4599681,59119,"Brazil","Rio Grande do Sul"
"Hims",34.72995892,36.72002193,890202,"Syria","Homs (Hims)"
"Shira",54.49144004,89.95305172,4836,"Russia","Khakass"
"Sanya",18.25910454,109.5040317,253721,"China","Hainan"
"Bordj Bou Arreridj",36.05900401,4.629996466,134500,"Algeria","Bordj Bou Arréridj"
"Siliguri",26.72042198,88.45500362,515574,"India","West Bengal"
"Tambov",52.73002301,41.43001868,296207.5,"Russia","Tambov"
"Kedougou",12.56043357,-12.17999068,18074,"Senegal","Tambacounda"
"Miami",25.7876107,-80.22410608,2983947,"United States of America","Florida"
"Chuncheon",37.87470237,127.7341565,218127.5,"South Korea","Gangwon-do"
"Uroteppa",39.92191591,69.00146236,104736,"Tajikistan","Leninabad"
"Rehoboth",-23.31957273,17.0800321,23298,"Namibia","Hardap"
"Al Mafraq",32.28329707,36.23329852,57118,"Jordan","Mafraq"
"Qingyuan",23.7003996,113.0300927,706717,"China","Guangdong"
"Segezha",63.75477643,34.32430253,28961,"Russia","Karelia"
"Siwa",29.20001223,25.51667476,23080,"Egypt","Matruh"
"Sao Paulo",-23.55867959,-46.62501998,14433147.5,"Brazil","São Paulo"
"Qingdao",36.08997927,120.3300089,2254122.5,"China","Shandong"
"Victoria",-38.23954059,-72.34001367,17989.5,"Chile","La Araucanía"
"Zhilinda",70.13368939,114.0000077,10,"Russia","Sakha (Yakutia)"
"Savonlinna",61.86662294,28.88334265,20233.5,"Finland","Southern Savonia"
"Kourou",5.159980895,-52.64994938,22425.5,"France","Guinaa"
"Ifakara",-8.129595521,36.68002437,27929.5,"Tanzania","Morogoro"
"Lae",-6.732988262,146.9900354,103653.5,"Papua New Guinea","Morobe"
"Villa O'Higgins",-48.46790851,-72.55997441,175,"Chile","Santa Cruz"
"Macia",-25.01952065,33.09001094,13095,"Mozambique","Gaza"
"Portalegre",39.29000411,-7.423001549,15581,"Portugal","Portalegre"
"Sierra Mojada",27.28757082,-103.2871945,10,"Mexico","Coahuila"
"Sancti Spiritus",21.93014589,-79.44250004,101710.5,"Cuba","Sancti Spíritus"
"Stony Rapids",59.26657493,-105.8332664,152,"Canada","Saskatchewan"
"Gomez Palacio",25.57005292,-103.5000238,313952.5,"Mexico","Durango"
