"city","latitude","longitude","population","country","province"
"Satun",6.616701099,100.0666986,34544,"Thailand","Satun"
"Comondante Luis Piedrabuena",-49.97454865,-68.90347273,410,"Argentina","Santa Cruz"
"Samaipata",-18.18004148,-63.77001998,2926,"Bolivia","Santa Cruz"
"Jyekundo",33.01662681,96.73330969,16500,"China","Gansu"
"Yala",6.550490335,101.2850732,120849,"Thailand","Yala"
"Chelyuskin",77.71697329,104.2500085,885,"Russia","Taymyr"
"Incheon",37.47614789,126.6422334,2550000,"South Korea","Inch'on-gwangyoksi"
"Chosica",-11.93003538,-76.71000533,44572.5,"Peru","Lima"
"Nagpur",21.16995974,79.08999385,2341009,"India","Maharashtra"
"Orizaba",18.85002382,-97.12999923,238340.5,"Mexico","Veracruz"
"Choluteca",13.30067263,-87.19081262,87650.5,"Honduras","Choluteca"
"Goycay",40.65342165,47.74058956,35031.5,"Azerbaijan","Göyçay"
"Guantanamo",20.1452936,-75.20614364,245069.5,"Cuba","Guantánamo"
"North Bay",46.30000205,-79.44999313,45988.5,"Canada","Ontario"
"Orocue",4.794551004,-71.34002303,2126.5,"Colombia","Casanare"
"Rivas",11.44037274,-85.8199919,31117,"Nicaragua","Nicaragua"
"Asosa",10.06699404,34.5333337,24192,"Ethiopia","Benshangul-Gumaz"
"Vung Tau",10.35537437,107.0849776,229225,"Vietnam","Bà Rịa–Vũng Tàu "
"Vientiane",17.96669273,102.59998,662174,"Laos","Vientiane [prefecture]"
"Cajamarca",-7.150017071,-78.53002344,138832.5,"Peru","Cajamarca"
"Lubutu",-0.732889385,26.583328,1313,"Congo (Kinshasa)","Maniema"
"Ararat",-37.27954751,142.9099743,5464,"Australia","Victoria"
"Embi",48.82677289,58.14419226,10009.5,"Kazakhstan","Aqtöbe"
"Comallo",-41.03332355,-70.26657434,741,"Argentina","Río Negro"
"San Francisco Gotera",13.69999812,-88.10000052,16152,"El Salvador","Morazán"
"Basoko",1.240426858,23.59002234,22953,"Congo (Kinshasa)","Orientale"
"Barysaw",54.22600405,28.49215206,127694.5,"Belarus","Minsk"
"Deline",65.18334556,-123.4166635,393.5,"Canada","Northwest Territories"
"Xingyi",25.09041811,104.8900211,539536,"China","Guizhou"
"Bartlesville",36.74720013,-95.98058618,24935,"United States of America","Oklahoma"
"Qarqaraly",49.42490175,75.46489213,4899,"Kazakhstan","Qaraghandy"
"Bentol",6.433299035,-10.60000152,4089,"Liberia","Montserrado"
"Treinta y Tres",-33.23002724,-54.38002466,26668.5,"Uruguay","Treinta y Tres"
"Arrecife",28.96904923,-13.53783283,47182.5,"Spain",""
"Karungu",-0.849626446,34.14999792,2376,"Kenya","Nyanza"
"Port-Vila",-17.7333504,168.3166406,39970.5,"Vanuatu","Shefa"
"Bytom",50.35003908,18.90999792,425716.5,"Poland","Silesian"
"Torbat-e Jam",35.22333966,60.61287878,81753,"Iran","Razavi Khorasan"
"Davenport",41.55398684,-90.58753036,178282.5,"United States of America","Iowa"
"Gimbi",9.167023131,35.83330603,22423.5,"Ethiopia","Addis Ababa"
"Wainwright",70.63688865,-160.0383041,174,"United States of America","Alaska"
"Varamin",35.31658978,51.64660437,172215,"Iran","Tehran"
"Gangneung",37.75587242,128.8961527,173797,"South Korea","Gangwon-do"
"Ntungamo",-0.8794444,30.2641667,16400,"Uganda","Ntungamo"
"Willemstad",12.20042971,-69.01998377,146813,"Curacao",""
"El Fasher",13.62998069,25.35001827,220906,"Sudan","Northern Darfur"
"Cape Dorset",64.31251972,-76.53857863,1326,"Canada","Nunavut"
"Andkhvoy",36.93165916,65.10149369,50469,"Afghanistan","Faryab"
"Ruteng",-8.611839987,120.4698453,44272.5,"Indonesia","Nusa Tenggara Timur"
"Grafton",-29.71199909,152.9376827,7871.5,"Australia","New South Wales"
"Beipiao",41.81001772,120.7600085,191757,"China","Liaoning"
"Srednekolymsk",67.45000307,153.7100386,3459,"Russia","Sakha (Yakutia)"
"Itajai",-26.89961261,-48.68001083,241421,"Brazil","Santa Catarina"
"Cacador",-26.77000812,-51.02002303,57155.5,"Brazil","Santa Catarina"
"Luiana",-17.36954832,22.99998083,150,"Angola","Cuando Cubango"
"Port Harcourt",4.810002257,7.010000772,1020000,"Nigeria","Rivers"
"Belgorod",50.62999615,36.5999259,328004.5,"Russia","Belgorod"
"Urgentch",41.5599813,60.64000891,126476.5,"Uzbekistan","Khorezm"
"Parkes",-33.12956826,148.170015,7160,"Australia","New South Wales"
"Azare",11.68040977,10.19001339,87912.5,"Nigeria","Bauchi"
"Qal at Bishah",20.00868695,42.59868119,85059.5,"Saudi Arabia","`Asir"
"Mascara",35.40040895,0.14003251,108230,"Algeria","Mascara"
"Polatli",39.58415875,32.14722611,72631.5,"Turkey","Ankara"
"Zeya",53.75001243,127.2665881,26999,"Russia","Amur"
"Porto Nacional",-10.70003294,-48.41994918,9129,"Brazil","Tocantins"
"Fulin",29.35000307,102.7167171,1049,"China","Sichuan"
"Mangai",-4.039612611,19.53001176,19946,"Congo (Kinshasa)","Bandundu"
"Shahrisabz",39.06178754,66.83146562,277798,"Uzbekistan","Kashkadarya"
"Kirovo-Chepetsk",58.55437034,50.04437659,71555.5,"Russia","Kirov"
"Burylbaytal",44.93874147,74.03025102,92.5,"Kazakhstan","Zhambyl"
"Nusaybin",37.07498374,41.21835201,120822.5,"Turkey","Mardin"
"Soro",55.43299811,11.5667016,7167,"Denmark","Sjaælland"
"Marietta",33.95561342,-84.54324813,61360,"United States of America","Georgia"
"Katanning",-33.69955931,117.5500752,3140,"Australia","Western Australia"
"Madinat ath Thawrah",35.8366614,38.54807572,85590,"Syria","Ar Raqqah"
"Kyaukphyu",19.42901315,93.54940356,4261,"Myanmar","Rakhine"
"Tehran",35.67194277,51.42434403,7513154.5,"Iran","Tehran"
"Green River",41.51455772,-109.4649827,10239.5,"United States of America","Wyoming"
"Santa Maria",-29.68331867,-53.80000838,239211.5,"Brazil","Rio Grande do Sul"
"Dolo Bay",4.183348001,42.08331213,11810,"Ethiopia","Somali"
"Parkersburg",39.26665875,-81.56164718,46749.5,"United States of America","West Virginia"
"Frontera",18.5803762,-92.64998845,15014,"Mexico","Tabasco"
"Kalmar",56.66701784,16.36658728,34884,"Sweden","Kalmar"
"Hughenden",-20.85000771,144.2000248,421,"Australia","Queensland"
"Kartaly",53.04739382,60.6819185,27107,"Russia","Chelyabinsk"
"Kholmsk",47.04732078,142.0623775,32796,"Russia","Sakhalin"
"Ash Shatrah",31.41752545,46.17722245,122340.5,"Iraq","Dhi-Qar"
"Multan",30.19997703,71.45500769,1479615,"Pakistan","Punjab"
"Alxa Zuoqi",38.83901044,105.6686299,56387,"China","Nei Mongol"
"Biratnagar",26.48374392,87.28334387,182324,"Nepal","Bhojpur"
"Mont-Laurier",46.55037437,-75.50002751,11642,"Canada","Québec"
"Las Vegas",36.20999778,-115.2200061,1150717,"United States of America","Nevada"
"Ed Damazin",11.77040428,34.34998572,114030,"Sudan","Blue Nile"
"Kulusuk",65.56657798,-37.18332239,286,"Greenland","Kommuneqarfik Sermersooq"
"Samarinda",-0.500035381,117.1499963,473694,"Indonesia","Kalimantan Timur"
"Loikaw",19.66500009,97.20600363,17293,"Myanmar","Kayah"
"Cambridge",52.20039125,0.116623086,128488,"United Kingdom","Cambridgeshire"
"Athens",33.96129783,-83.3780221,78017.5,"United States of America","Georgia"
"Lubeck",53.87039268,10.66998409,223798.5,"Germany","Schleswig-Holstein"
"Cuamba",-14.78960244,36.53998124,68204.5,"Mozambique","Nassa"
