"city","latitude","longitude","population","country","province"
"Rafaela",-31.25004474,-61.49997766,69649,"Argentina","Santa Fe"
"Eyl",7.983348611,49.83327836,9636.5,"Somalia","Nugaal"
"Newman",-23.36659829,119.7333011,2678,"Australia","Western Australia"
"Korhogo",9.459976826,-5.639950604,172535,"Ivory Coast","Savanes"
"Sousse",35.82999514,10.62502559,245563.5,"Tunisia","Sousse"
"Saskatoon",52.17003135,-106.6699854,194075.5,"Canada","Saskatchewan"
"Iguape",-24.72000405,-47.56994938,23602.5,"Brazil","São Paulo"
"Caballococha",-3.916260967,-70.50834253,3195,"Peru","Loreto"
"Oranjemund",-28.54948606,16.42999426,7223,"Namibia","Karas"
"Rajapalaiyam",9.420392679,77.5800085,338975,"India","Tamil Nadu"
"Alpena",45.06160219,-83.43269576,14524,"United States of America","Michigan"
"Aberdeen",57.17039797,-2.079987021,186577,"United Kingdom","Aberdeen"
"Dublin",32.53745709,-82.91828272,19258.5,"United States of America","Georgia"
"Nenana",64.56379681,-149.0930032,75,"United States of America","Alaska"
"Karbala",32.61492006,44.02448564,472571,"Iraq","Karbala'"
"Cadiz",10.95874839,123.3085868,206105,"Philippines","Negros Occidental"
"Mae Hong Son",19.30100405,97.96899665,9109,"Thailand","Mae Hong Son"
"Alajuela",10.02002016,-84.23003727,217618.5,"Costa Rica","Alajuela"
"Ridder",50.35538759,83.5149434,54710,"Kazakhstan","East Kazakhstan"
"Simferopol",44.94915428,34.0987349,305882.5,"Ukraine","Crimea"
"Treviso",45.67001467,12.24001745,128726.5,"Italy","Veneto"
"Krasnogorsk",48.4615497,142.0899727,3304,"Russia","Sakhalin"
"Pampa del Infierno",-26.51658689,-61.16658716,2921,"Argentina","Chaco"
"Sancti Spiritus",21.93014589,-79.44250004,101710.5,"Cuba","Sancti Spíritus"
"Irvine",33.68041058,-117.8299502,1611303.5,"United States of America","California"
"Kasangulu",-4.579579652,15.17999304,22645,"Congo (Kinshasa)","Bas-Congo"
"Al Qamishli",37.03002525,41.22997921,104107,"Syria","Hasaka (Al Haksa)"
"Kasaji",-10.36620319,23.44997921,11969,"Congo (Kinshasa)","Katanga"
"Atherton",-17.27027789,145.469353,6132.5,"Australia","Queensland"
"Sumbawanga",-7.959580059,31.62002315,76546.5,"Tanzania","Rukwa"
"Somoto",13.47599712,-86.58299659,20316,"Nicaragua","Madriz"
"Saratoga Springs",43.08296328,-73.78501591,41891,"United States of America","New York"
"Yaounde",3.866700662,11.51665076,1335793.5,"Cameroon","Centre"
"Lancaster",40.03777447,-76.30576644,209489,"United States of America","Pennsylvania"
"Frias",-28.64958331,-65.14998743,13594,"Argentina","Santiago del Estero"
"Bournemouth",50.72999005,-1.900049684,295272.5,"United Kingdom","Bournemouth"
"Moss",59.43697797,10.66915727,35696.5,"Norway","Ãstfold"
"Aleg",17.057997,-13.90899556,8388,"Mauritania","Brakna"
"Andradina",-20.90959064,-51.37994938,45715,"Brazil","São Paulo"
"Bourem",16.90037539,-0.349989259,28743,"Mali","Gao"
"Eastmain",52.23333498,-78.51669092,335,"Canada","Québec"
"Whyalla",-33.02502684,137.5614119,21102,"Australia","South Australia"
"Brisbane",-27.45503091,153.0350927,1393176.5,"Australia","Queensland"
"Qaminis",31.66063723,20.01546016,5348,"Libya","Benghazi"
"Tepic",21.50539146,-104.8799913,299686.5,"Mexico","Nayarit"
"Xining",36.6199986,101.7700048,907765.5,"China","Gansu"
"Pago Pago",-14.2766105,-170.7066451,12038,"American Samoa",""
"Huarmey",-10.06958047,-78.15999435,9184,"Peru","Ancash"
"La Rioja",-29.40995034,-66.84996118,147130,"Argentina","La Rioja"
"Mpigi",0.225,32.3136111,11082,"Uganda","Mpigi"
"Kirsehir",39.14199917,34.1710026,94336,"Turkey","Kirsehir"
"Pleven",43.42376935,24.61337073,110445.5,"Bulgaria","Pleven"
"Rach Gia",10.01539512,105.0913525,252830,"Vietnam","Kiên Giang"
"Alta Floresta",-9.900030091,-55.90998295,40466,"Brazil","Mato Grosso"
"Coventry",52.42040367,-1.499996583,348292,"United Kingdom","West Midlands"
"Palmer Station",-64.76241335,-64.0468756,30.5,"Antarctica",""
"Nelson",49.48365786,-117.2832911,10796,"Canada","British Columbia"
"Jauja",-11.79960407,-75.50002751,21057,"Peru","Junín"
"Nizhneudinsk",54.89766848,99.02769161,41024.5,"Russia","Irkutsk"
"Deyang",31.13333091,104.3999735,152194,"China","Sichuan"
"Brussels",50.83331708,4.333316608,1381011,"Belgium","Brussels"
"Watsa",3.040006937,29.52996985,17721.5,"Congo (Kinshasa)","Orientale"
"Kipushi",-11.75960651,27.25000565,87839.5,"Congo (Kinshasa)","Katanga"
"Moratuwa",6.780398782,79.88002315,188595,"Sri Lanka","Colombo"
"Santa Cruz",-0.533315004,-90.34999964,8147.5,"Ecuador","Galápagos"
"Newcastle Waters",-17.55279295,133.4672432,10,"Australia","Northern Territory"
"Zixing",25.96997683,113.4000443,6618,"China","Hunan"
"Musoma",-1.489587383,33.79999345,127137.5,"Tanzania","Mara"
"Yasothon",15.78799812,104.1509977,21643,"Thailand","Yasothon"
"Mango",10.35956016,0.470813353,40187,"Togo","Savanes"
"Bulawayo",-20.16999754,28.58000199,697096,"Zimbabwe","Bulawayo"
"Calama",-22.45001341,-68.91998987,134336.5,"Chile","Antofagasta"
"Zamboanga",6.919976826,122.0800313,615311.5,"Philippines","Zamboanga del Sur"
"Nikolayevsk na Amure",53.14963564,140.730004,27113,"Russia","Khabarovsk"
"Dalian",38.92283839,121.6298308,2601153.5,"China","Liaoning"
"Boende",-0.219587383,20.8600081,24679.5,"Congo (Kinshasa)","Équateur"
"Sohag",26.55040651,31.70001827,404709.5,"Egypt","Suhaj"
"Cascavel",-24.95957599,-53.46002914,229300,"Brazil","Paraná"
"Jaffna",9.675002461,80.00502844,169069,"Sri Lanka","Jaffna"
"Leninobod",39.75000301,69.00000365,11468,"Tajikistan","Leninabad"
"Yangzhou",32.39999778,119.4300122,539715,"China","Jiangsu"
"Charagua",-19.79958087,-63.2199502,3025,"Bolivia","Santa Cruz"
"Biak",-1.161493715,136.048481,103610,"Indonesia","Papua"
"Rayong",12.67184796,101.2814559,37035,"Thailand","Rayong"
"Greenville",33.41037539,-91.06168746,36539.5,"United States of America","Mississippi"
"Nukualofa",-21.13851236,-175.2205645,33139,"Tonga",""
"Fort Yukon",66.56468243,-145.2737789,833,"United States of America","Alaska"
"Irbid",32.54998863,35.84999752,471020,"Jordan","Irbid"
"Mito",36.37042727,140.4800451,300215,"Japan","Ibaraki"
"Aomori",40.82503908,140.7100052,281571.5,"Japan","Aomori"
"Puebla",19.04995994,-98.20003727,1793549.5,"Mexico","Puebla"
"Buguruslan",53.66301516,52.43301632,51877,"Russia","Orenburg"
"Kingman",35.18987917,-114.0522221,33306.5,"United States of America","Arizona"
"Xuanzhou",30.9525,118.7552778,866000,"China","Anhui"
"New Liskeard",47.50000633,-79.66664657,5203,"Canada","Ontario"
"Port Denison",-29.28282632,114.9166442,1213,"Australia","Western Australia"
"Garoowe",8.399989847,48.50002641,2568,"Somalia","Nugaal"
"Luga",58.7363489,29.83899491,37124.5,"Russia","Leningrad"
"Jequie",-13.85002155,-40.07999312,131524.5,"Brazil","Bahia"
"Linqing",36.85039797,115.6800085,110046,"China","Hebei"
