"city","latitude","longitude","population","country","province"
"Lebowakgomo",-24.19962238,29.49999752,16852.5,"South Africa","Limpopo"
"Okara",30.81040489,73.45002803,223648,"Pakistan","Punjab"
"Ayapel",8.330407531,-75.15002303,23120.5,"Colombia","Córdoba"
"Lichinga",-13.30002928,35.24000891,94333.5,"Mozambique","Nassa"
"Adelaide",-34.93498777,138.6000048,990677,"Australia","South Australia"
"Er Rachidia",31.94041343,-4.449971559,228489,"Morocco","Meknès - Tafilalet"
"Greenville",34.85292299,-82.3941545,203256.5,"United States of America","South Carolina"
"Bello",6.329986998,-75.5699974,456304.5,"Colombia","Antioquia"
"Cienfuegos",22.14444806,-80.44029444,146549.5,"Cuba","Cienfuegos"
"Liuhe",42.27885215,125.7173287,67956.5,"China","Jilin"
"Bandar-e Bushehr",28.91997764,50.83001339,167218.5,"Iran","Bushehr"
"Kumo",10.04570335,11.21305172,19249,"Nigeria","Gombe"
"Turku",60.4538668,22.25496171,175442.5,"Finland","Finland Proper"
"Homyel",52.43001548,31.00000932,472337.5,"Belarus","Homyel'"
"Salima",-13.78294554,34.43328813,50616.5,"Malawi","Salima"
"Auburn",32.60970074,-85.48083948,61881,"United States of America","Alabama"
"Mocimboa",-11.31958169,40.34998124,27909,"Mozambique","Cabo Delgado"
"Kongolo",-5.379479147,26.9799963,68572.5,"Congo (Kinshasa)","Katanga"
"Corum",40.5199931,34.95000077,168544,"Turkey","Çorum"
"Chur",46.85002016,9.500029662,35361,"Switzerland","Graubünden"
"Jefferson City",38.57662335,-92.17332503,45511,"United States of America","Missouri"
"Tatui",-23.35001015,-47.8600092,81936,"Brazil","São Paulo"
"Yevpatoriya",45.19689109,33.36306921,90588,"Ukraine","Crimea"
"Aqsay",51.17143597,53.03489172,30404.5,"Kazakhstan","West Kazakhstan"
"Tomah",43.98505292,-90.50389205,10796.5,"United States of America","Wisconsin"
"Steinkjer",64.01706016,11.50001094,11193.5,"Norway","Nord-Trøndelag"
"Bentiu",9.2333333,29.8333333,7653,"South Sudan","Unity"
"Pozo Almonte",-20.2696297,-69.80001367,10830,"Chile","Tarapacá"
"Pisco",-13.71003009,-76.21998356,71538,"Peru","Ica"
"Bordj Bou Arreridj",36.05900401,4.629996466,134500,"Algeria","Bordj Bou Arréridj"
"Aosta",45.73700107,7.315002596,34062,"Italy","Valle d'Aosta"
"Komsomolets",53.75055503,62.05020707,5693.5,"Kazakhstan","Qostanay"
"Lishui",28.45041974,119.9000093,135861.5,"China","Zhejiang"
"Kara Balta",42.83062726,73.88566036,68464.5,"Kyrgyzstan","Bishkek"
"Albacete",39.00034426,-1.869999839,127597,"Spain","Castilla-La Mancha"
"Saravan",15.715998,106.4269987,5521,"Laos","Saravan"
"Krasnokamsk",58.07473553,55.74428707,50382,"Russia","Perm'"
"Heredia",9.991997986,-84.12000251,21947,"Costa Rica","Heredia"
"Bikin",46.82025454,134.2649206,19264.5,"Russia","Khabarovsk"
"Assis",-22.65961302,-50.41998214,79133,"Brazil","São Paulo"
"Bulaevo",54.90531659,70.43997921,5383,"Kazakhstan","North Kazakhstan"
"Castro",-24.79002562,-50.00998132,38417.5,"Brazil","Paraná"
"Edea",3.800477314,10.11999182,109506.5,"Cameroon","Littoral"
"Port Alfred",-33.59951373,26.8800024,9377,"South Africa","Eastern Cape"
"Copiapo",-27.35999795,-70.33998071,117316.5,"Chile","Atacama"
"Rajapalaiyam",9.420392679,77.5800085,338975,"India","Tamil Nadu"
"Havana",23.13195884,-82.36418217,2082458.5,"Cuba","Ciudad de la Habana"
"Novomoskovsk",54.09001752,38.21998205,74591.5,"Russia","Tula"
"Asahikawa",43.75501528,142.3799808,341079.5,"Japan","Hokkaido"
"Nassau",25.08339012,-77.35004378,194453,"The Bahamas",""
"Quixada",-4.969995098,-39.02000615,30723.5,"Brazil","Ceará"
"Chesterfield Inlet",63.33829022,-90.70008163,374,"Canada","Nunavut"
"Novo Airao",-2.620784486,-60.94378422,9049,"Brazil","Amazonas"
"Quanzhou",24.9000163,118.5799865,823571.5,"China","Fujian"
"Lucea",18.44299809,-78.17900362,6289,"Jamaica","Hanover"
"San Bernardino",34.12038373,-117.3000342,973690.5,"United States of America","California"
"Buta",2.819994526,24.74002966,44195,"Congo (Kinshasa)","Orientale"
"Jau",-22.28960976,-48.57001754,102565.5,"Brazil","São Paulo"
"Katanning",-33.69955931,117.5500752,3140,"Australia","Western Australia"
"Wrangell",56.47126752,-132.3715949,1658.5,"United States of America","Alaska"
"Zhanibek",49.4276406,46.8772314,6824,"Kazakhstan","West Kazakhstan"
"Severobaykalsk",55.63400596,109.3129553,25800,"Russia","Buryat"
"Duma",33.5833364,36.39998979,406912,"Syria","Damascus"
"Stanley",-51.70001097,-57.8499679,2213,"Falkland Islands",""
"Ado Ekiti",7.630372741,5.219980834,446749,"Nigeria","Ekiti"
"Texas City",29.41087791,-94.96276717,55717.5,"United States of America","Texas"
"Vernal",40.45539756,-109.5280022,11175.5,"United States of America","Utah"
"Alajuela",10.02002016,-84.23003727,217618.5,"Costa Rica","Alajuela"
"Luebo",-5.349506817,21.41000036,17682.5,"Congo (Kinshasa)","Kasaï-Occidental"
"Stans",46.95000307,8.383302547,7475,"Switzerland","Nidwalden"
"Gueppi",-0.116596254,-75.22996647,10,"Peru","Loreto"
"New Glasgow",45.58327578,-62.63331934,19883.5,"Canada","Nova Scotia"
"Ust Olensk",72.99778302,119.7729295,10,"Russia","Sakha (Yakutia)"
"Sumqayt",40.58001528,49.62998328,272154.5,"Azerbaijan","Sumqayit"
"La Rochelle",46.16665102,-1.149992108,76903.5,"France","Poitou-Charentes"
"Zumpango",19.81040448,-99.10998173,188994,"Mexico","México"
"Shymkent",42.32001243,69.59501786,439712,"Kazakhstan","South Kazakhstan"
"Scott Base",-77.84693819,166.7491023,49.5,"Antarctica",""
"Takapuna",-36.7912569,174.7758329,184815.5,"New Zealand","Auckland"
"Groningen",5.796998975,-55.48100346,3216,"Suriname","Saramacca"
"Illizi",26.48335634,8.466604369,7293,"Algeria","Illizi"
"Savissivik",76.01947624,-65.11248065,66,"Greenland",""
"Falun",60.61300204,15.64700455,36477,"Sweden","Dalarna"
"Sidi bel Abbes",35.19034426,-0.639971559,200186.5,"Algeria","Sidi Bel Abbès"
"Sibu",2.302971821,111.8430334,201035.5,"Malaysia","Sarawak"
"Onega",63.92714317,38.0771484,20447.5,"Russia","Arkhangel'sk"
"Salcedo",19.38300302,-70.4167015,45299,"Dominican Republic","Hermanas"
"Blenheim",-41.52099404,173.9592419,23056.5,"New Zealand","Marlborough"
"Dickson",73.50697186,80.54509884,1113,"Russia","Taymyr"
"Stavanger",58.97000389,5.680004434,136999,"Norway","Rogaland"
"Spassk Dalniy",44.60015749,132.8197892,44861,"Russia","Primor'ye"
"Presov",48.99973391,21.23936479,85368.5,"Slovakia","Prešov"
"Tarbes",43.23329002,0.083343464,53480,"France","Midi-Pyrénées"
"Poronaysk",49.24155377,143.0850024,15555,"Russia","Sakhalin"
"Kirksville",40.19368227,-92.58280908,18083,"United States of America","Missouri"
"Jeremie",18.63393473,-74.11842526,30917,"Haiti","Grand'Anse"
"Palmas",-10.23773558,-48.2877867,215793.5,"Brazil","Tocantins"
"Namur",50.47039349,4.870028034,97155.5,"Belgium","Namur"
"Mekambo",1.017081318,13.93329911,3170,"Gabon","Ogooué-Ivindo"
"Klaksvik",62.2374783,-6.53901149,4664,"Faroe Islands","Eysturoyar"
