"city","latitude","longitude","population","country","province"
"Wajir",1.750369892,40.04999955,40240,"Kenya","North-Eastern"
"Andong",36.56591921,128.7250004,123920.5,"South Korea","Daegu"
"Xiangkhoang",19.33368939,103.3665999,5189,"Laos","Xiangkhoang"
"Chadron",42.82791424,-103.0030774,5686.5,"United States of America","Nebraska"
"25 de Mayo",-37.80003253,-67.68329533,17430,"Argentina","Río Negro"
"Samara",53.19500755,50.15129512,996595,"Russia","Samara"
"Escuinapa",22.85042564,-105.7999868,28248,"Mexico","Sinaloa"
"Blenheim",-41.52099404,173.9592419,23056.5,"New Zealand","Marlborough"
"Yevlax",40.61719647,47.15003129,50014,"Azerbaijan","Yevlax"
"Ha Giang",22.83365664,104.9833488,35526,"Vietnam","Hà Giang"
"Sapele",5.890427265,5.680004434,235424,"Nigeria","Delta"
"Santa Cruz do Sul",-29.71003538,-52.44003972,109869,"Brazil","Rio Grande do Sul"
"Opole",50.68497988,17.93134965,129544,"Poland","Opole"
"Rostov",57.18915651,39.40430253,33578,"Russia","Yaroslavl'"
"Puerto Baquerizo Moreno",-0.900010967,-89.5999679,5122,"Ecuador","Galápagos"
"Beringovskiy",63.0654645,179.3066674,1861,"Russia","Chukchi Autonomous Okrug"
"Morondava",-20.28327228,44.28333288,20018.5,"Madagascar","Toliary"
"Galway",53.272393,-9.048812298,73140,"Ireland","Galway"
"Sabzewar",36.22002301,57.63001176,215910.5,"Iran","Razavi Khorasan"
"Krabi",8.052003097,98.91199867,31219,"Thailand","Krabi"
"Krong Koh Kong",11.61753897,102.9849329,30285,"Cambodia","Kaôh Kong"
"Sirsa",29.4903821,75.02998328,170884,"India","Haryana"
"Biarritz",43.47327537,-1.561594891,89268,"France","Aquitaine"
"Slatina",44.43499814,24.37100156,78988,"Romania","Olt"
"Cedar Rapids",41.96998212,-91.66002303,149338.5,"United States of America","Iowa"
"Kindu",-2.963915996,25.90998409,199306,"Congo (Kinshasa)","Maniema"
"Freeport",26.53327578,-78.70001306,25383,"The Bahamas",""
"Appenzell",47.3333041,9.416700505,5649,"Switzerland","Appenzell Innerrhoden"
"Luan",31.75034751,116.4800114,1408227.5,"China","Anhui"
"Hoa Binh",20.81370241,105.3383142,102381,"Vietnam","Hòa Bình"
"Rome",41.89595563,12.48325842,1687226,"Italy","Lazio"
"Maryborough",-37.04958738,143.729976,5838.5,"Australia","Victoria"
"Sandnes",58.84541201,5.690029662,46911,"Norway","Rogaland"
"Denizli",37.77039349,29.08002315,342791,"Turkey","Denizli"
"Aurangabad",19.89569643,75.32030147,1064720.5,"India","Maharashtra"
"Tsuruoka",38.70041424,139.830214,88052.5,"Japan","Yamagata"
"Buzau",45.15650596,26.80651851,130826,"Romania","Buzau"
"Superior",46.72124249,-92.10389775,27474,"United States of America","Wisconsin"
"Gulbarga",17.34996035,76.82000321,482546.5,"India","Karnataka"
"Juchitan",16.42999066,-95.01999882,62254.5,"Mexico","Oaxaca"
"McMinns Lagoon",-12.53289264,131.0500264,5025,"Australia","Northern Territory"
"Dirj",30.1679118,10.45666378,931,"Libya","Ghadamis"
"Mendoza",-32.88333006,-68.81661117,827815,"Argentina","Mendoza"
"Aracaju",-10.90002073,-37.11996708,587765.5,"Brazil","Sergipe"
"Chongju",39.68128461,125.2163256,85417,"North Korea","P'yongan-bukto"
"Lankaran",38.7540027,48.85106441,60180,"Azerbaijan","Astara"
"Stavropol",45.05000083,41.98001094,350795.5,"Russia","Stavropol'"
"Obo",5.399992085,26.50002559,12837,"Central African Republic","Haut-Mbomou"
"Carnot",4.933689798,15.8666178,32298,"Central African Republic","Mambéré-Kadéï"
"Tatabanya",47.54999718,18.43299957,70541,"Hungary","Komárom-Esztergom"
"Rovaniemi",66.50003522,25.71593909,30085,"Finland","Lapland"
"Neiva",2.931047179,-75.33024459,318566,"Colombia","Huila"
"Potenza",40.64200213,15.7989965,69060,"Italy","Basilicata"
"Meridian",32.36418601,-88.70361434,40863.5,"United States of America","Mississippi"
"Molepolole",-24.3999719,25.5100085,57713,"Botswana","Kweneng"
"Katanning",-33.69955931,117.5500752,3140,"Australia","Western Australia"
"Slobodskoy",58.71849469,50.18803707,40661.5,"Russia","Kirov"
"Bhavnagar",21.77842389,72.12995357,509790,"India","Dadra and Nagar Haveli"
"Ushtobe",45.26533653,77.96995886,19116.5,"Kazakhstan","Almaty"
"Varamin",35.31658978,51.64660437,172215,"Iran","Tehran"
"Needles",34.84842714,-114.6133507,6246.5,"United States of America","California"
"Wangdue Prodrang",27.43329603,89.91669667,5000,"Bhutan","Wangdi Phodrang"
"Bac Kan",22.1333333,105.8333333,29227,"Vietnam","Bac Kan"
"Colesberg",-30.71953449,25.10000769,7491,"South Africa","Northern Cape"
"Singida",-4.81961668,34.74003943,47749.5,"Tanzania","Singida"
"Crescent City",41.7564551,-124.2004916,9439.5,"United States of America","California"
"Hengshui",37.71998313,115.7000073,456356,"China","Hebei"
"Fargona",40.3899752,71.78000077,482000,"Uzbekistan","Ferghana"
"Yekaterinburg",56.85002993,60.59995967,1270488,"Russia","Sverdlovsk"
"Catamarca",-28.47000771,-65.78000065,162586,"Argentina","Catamarca"
"Gorom Gorom",14.45000398,-0.233297546,6691,"Burkina Faso","Oudalan"
"Gashua",12.87049217,11.03998734,74825.5,"Nigeria","Yobe"
"Buenaventura",3.872402425,-77.05045329,246596,"Colombia","Valle del Cauca"
"Eumseong",36.93525067,127.6897147,10077,"South Korea","Chungcheongbuk-do"
"Breves",-1.680015036,-50.4900037,46818.5,"Brazil","Pará"
"Matsumoto",36.2404352,137.9700175,217796.5,"Japan","Nagano"
"Cantwell",63.39159446,-148.9507896,222,"United States of America","Alaska"
"Buynaksk",42.8334953,47.11303096,75800,"Russia","Dagestan"
"Albany",42.67001691,-73.81994918,484286,"United States of America","New York"
"Seward",60.1261607,-149.4699827,2900,"United States of America","Alaska"
"Ikare",7.530430521,5.759999551,899965.5,"Nigeria","Ondo"
"Joensuu",62.59998903,29.76664791,53388,"Finland","North Karelia"
"Bubanza",-3.083300984,29.36670351,12728,"Burundi","Bubanza"
"Eldorado",24.3304645,-107.3699943,15750.5,"Mexico","Sinaloa"
"Qarqaraly",49.42490175,75.46489213,4899,"Kazakhstan","Qaraghandy"
"Mokhotlong",-29.29100403,29.07800155,8809,"Lesotho","Mokhotlong"
"Muncie",40.19375979,-85.38637496,75388,"United States of America","Indiana"
"Baku",40.39527203,49.86221716,2007150,"Azerbaijan","Baki"
"Peace River",56.23332338,-117.2832911,5014.5,"Canada","Alberta"
"Wenatchee",47.42362856,-120.3090237,45892,"United States of America","Washington"
"Qitaihe",45.7999809,130.8500386,397825,"China","Heilongjiang"
"Owerri",5.492997053,7.026003588,215038,"Nigeria","Imo"
"Juazeiro",-9.420007712,-40.49996749,95132,"Brazil","Bahia"
"Ar Rutbah",33.0384601,40.28445552,17199.5,"Iraq","Al-Anbar"
"Quillota",-32.87997109,-71.26000208,73732.5,"Chile","Valparaíso"
"Senmonorom",12.44999711,107.1999997,7944,"Cambodia","Môndól Kiri"
"Tirgu Mures",46.55820335,24.55781856,148148,"Romania","Mures"
"Biskra",34.85997683,5.73002722,202103,"Algeria","Biskra"
"Angra do Heroismo",38.65039146,-27.21666976,11136.5,"Portugal","Azores"
"Santana do Livramento",-30.88004148,-55.53000615,87312,"Brazil","Rio Grande do Sul"
