"city","latitude","longitude","population","country","province"
"Attawapiskat",52.91662661,-82.43332524,1802,"Canada","Ontario"
"Pita",11.0799991,-12.40100056,20052,"Guinea","Mamou"
"Mozdok",43.75431765,44.65436967,43262.5,"Russia","North Ossetia"
"Melton",-37.68954832,144.570028,29750,"Australia","Victoria"
"Susuman",62.78333701,148.1667594,7367,"Russia","Maga Buryatdan"
"Perabumulih",-3.443163229,104.2314567,83754,"Indonesia","Sumatera Selatan"
"Tamuin",21.98037539,-98.7500037,11076.5,"Mexico","San Luis Potosí"
"Urumqi",43.80501223,87.57500565,1829612.5,"China","Xinjiang Uygur"
"Iringa",-7.769617494,35.69000728,103290,"Tanzania","Iringa"
"Muskegon",43.23458193,-86.24836369,70644.5,"United States of America","Michigan"
"Ntungamo",-0.8794444,30.2641667,16400,"Uganda","Ntungamo"
"Rocha",-34.48297402,-54.33302494,26194.5,"Uruguay","Rocha"
"Viana",-3.209585756,-45.00000289,15808.5,"Brazil","Maranhão"
"Maroantsetra",-15.43333576,49.73333614,30952.5,"Madagascar","Toamasina"
"Quincy",39.9359719,-91.40972823,43419.5,"United States of America","Illinois"
"Portoviejo",-1.060001201,-80.45998316,191963.5,"Ecuador","Manabi"
"Tulsa",36.12000327,-95.93002079,669434,"United States of America","Oklahoma"
"Muskogee",35.74821718,-95.36943486,38995.5,"United States of America","Oklahoma"
"Shishmaref",66.25697512,-166.0718893,254,"United States of America","Alaska"
"Nizhnekamsk",55.64043968,51.82003048,210363,"Russia","Tatarstan"
"Mahdia",35.48391304,11.04087662,45977,"Tunisia","Mahdia"
"Las Tablas",7.760390644,-80.28001998,9964,"Panama","Los Santos"
"Bungoma",0.570390237,34.55999874,55962,"Kenya","Western"
"Atlanta",33.83001385,-84.39994938,2464454,"United States of America","Georgia"
"Foumban",5.730385355,10.89999589,64399,"Cameroon","Ouest"
"Quixada",-4.969995098,-39.02000615,30723.5,"Brazil","Ceará"
"Ondo",7.0904057,4.840004027,256444,"Nigeria","Ondo"
"Namangan",41.00001548,71.66998165,599600,"Uzbekistan","Namangan"
"Pakxe",15.12206016,105.8183365,95553.5,"Laos","Champasak"
"Terbyas",64.37608217,120.5468949,10,"Russia","Sakha (Yakutia)"
"El Seibo",18.76400114,-69.03500346,23547,"Dominican Republic","El Seybo"
"Kano",11.99997683,8.5200378,3140000,"Nigeria","Kano"
"Mistassini",50.41706341,-73.86658716,2645,"Canada","Québec"
"Djelfa",34.67998781,3.250023558,170901,"Algeria","Djelfa"
"Ornskoldsvik",63.31800722,18.71667639,26406,"Sweden","Västernorrland"
"Jose Batlle y Ordonez",-33.47001259,-55.12000533,2438,"Uruguay","Lavalleja"
"Tomah",43.98505292,-90.50389205,10796.5,"United States of America","Wisconsin"
"Nueva Gerona",21.88371462,-82.79999536,22915,"Cuba","Isla de la Juventud"
"Gwanda",-20.93961465,29.01000159,8252.5,"Zimbabwe","Matabeleland South"
"Guaira",-24.08996499,-54.2699797,28897.5,"Brazil","Paraná"
"Asahikawa",43.75501528,142.3799808,341079.5,"Japan","Hokkaido"
"Jamestown",42.09736452,-79.23553593,37916.5,"United States of America","New York"
"Miass",54.99541445,60.0949259,148834.5,"Russia","Chelyabinsk"
"Mangalore",12.90002525,74.84999426,597009.5,"India","Karnataka"
"Robertsport",6.753320332,-11.36859318,7951,"Liberia","Grand Cape Mount"
"Joinville",-26.31995807,-48.83994938,710737.5,"Brazil","Santa Catarina"
"Mazatlan",23.22110069,-106.4200007,361460.5,"Mexico","Sinaloa"
"Nanping",26.63037579,118.1699857,192364,"China","Fujian"
"Damascus",33.500034,36.29999589,2466000,"Syria","Damascus"
"Dutse",11.7991891,9.350334607,17129,"Nigeria","Jigawa"
"Oriximina",-1.759596742,-55.86998539,35300,"Brazil","Pará"
"Sambalpur",21.47040651,83.97005774,236869.5,"India","Orissa"
"Ketchikan",55.3562193,-131.6639895,8121,"United States of America","Alaska"
"Weyburn",49.66656659,-103.8500025,9302.5,"Canada","Saskatchewan"
"David",8.433321146,-82.43332524,96448,"Panama","Chiriquí"
"Tarlac",15.48379519,120.5833785,183930,"Philippines","Tarlac"
"Utsunomiya",36.54997703,139.8700048,558808.5,"Japan","Tochigi"
"Abeokuta",7.160427265,3.350017455,441231,"Nigeria","Ogun"
"Goya",-29.13999266,-59.26998458,71274.5,"Argentina","Corrientes"
"Matara",5.948976663,80.5427734,68244,"Sri Lanka","Matara"
"As Sib",23.68024579,58.18253617,237816,"Oman","Muscat"
"Iasi",47.16834698,27.57494706,325914,"Romania","Iasi"
"Gaoual",11.75400014,-13.21299843,7461,"Guinea","Boke"
"Enid",36.39554201,-97.8780931,45963.5,"United States of America","Oklahoma"
"Tirgu Mures",46.55820335,24.55781856,148148,"Romania","Mures"
"Las Cruces",32.31261293,-106.7778083,97675.5,"United States of America","New Mexico"
"Buta",2.819994526,24.74002966,44195,"Congo (Kinshasa)","Orientale"
"Chattanooga",35.06998985,-85.25000086,206571.5,"United States of America","Tennessee"
"Glazov",58.12320803,52.62876664,93352,"Russia","Udmurt"
"Kisii",-0.669585756,34.75998653,28547,"Kenya","Nyanza"
"Kati",12.75042198,-8.080008384,54908.5,"Mali","Bamako"
"Yakutsk",62.03495892,129.7350162,220813,"Russia","Sakha (Yakutia)"
"Caserta",41.05996014,14.33735714,164744,"Italy","Campania"
"Qingdao",36.08997927,120.3300089,2254122.5,"China","Shandong"
"Jauja",-11.79960407,-75.50002751,21057,"Peru","Junín"
"Eldama Ravine",0.050370299,35.72003129,15052.5,"Kenya","Rift Valley"
"Atlixco",18.90002077,-98.44999618,91866.5,"Mexico","Puebla"
"Ismailia",30.5903408,32.25998409,470474,"Egypt","Al Isma`iliyah"
"Porto Uniao",-26.23960122,-51.07996769,50242.5,"Brazil","Santa Catarina"
"Piraievs",37.95002077,23.69998979,320881,"Greece","Attiki"
"Kovrov",56.36036989,41.33002478,153060,"Russia","Vladimir"
"Sassari",40.73000612,8.57000891,102822.5,"Italy","Sardegna"
"Rodos",36.44122398,28.22250443,56548.5,"Greece","Notio Aigaio"
"Sironko",1.25,34.3,14100,"Uganda","Budadiri"
"Kropotkin",45.44708254,40.58211177,70518,"Russia","Krasnodar"
"Palmeira dos Indios",-9.416597067,-36.61663863,41095,"Brazil","Alagoas"
"Kingston",-42.99113686,147.3084139,12652,"Australia","Tasmania"
"Kryvyy Rih",47.92832644,33.34498246,571643.5,"Ukraine","Dnipropetrovs'k"
"Sierra Mojada",27.28757082,-103.2871945,10,"Mexico","Coahuila"
"Niquelandia",-14.46962197,-48.47002364,19785,"Brazil","Goiás"
"Orillia",44.59997662,-79.41666183,33830.5,"Canada","Ontario"
"Modena",44.65002525,10.91999467,175034.5,"Italy","Emilia-Romagna"
"Pochutla",15.73039512,-96.46998784,18779.5,"Mexico","Oaxaca"
"Little Current",45.96702496,-81.93332992,1595,"Canada","Ontario"
"Golmud",36.416626,94.88334509,107092,"China","Gansu"
"Bermejo",-22.72958291,-64.34998458,36544,"Bolivia","Tarija"
"Amiens",49.90037661,2.300004027,118908.5,"France","Picardie"
"Coffeyville",37.03806093,-95.6263184,10955,"United States of America","Kansas"
"Sisimiut",66.95000775,-53.66660567,5227,"Greenland","Qeqqata Kommunia"
"Bhatpara",22.85042564,88.52001257,483129,"India","West Bengal"
