"city","latitude","longitude","population","country","province"
"Parintins",-2.610035788,-56.74000981,64428,"Brazil","Amazonas"
"Gulu",2.779996967,32.28003454,144430.5,"Uganda","Aswa"
"Kirovsk",67.60908897,33.66873531,22949,"Russia","Murmansk"
"Severo Kurilsk",50.69048342,156.0850358,2422,"Russia","Sakhalin"
"Skien",59.19998985,9.600023558,73330,"Norway","Telemark"
"Rajkot",22.31001935,70.80000891,1179941,"India","Dadra and Nagar Haveli"
"Bowen",-20.00132566,148.208669,10983,"Australia","Queensland"
"Showa Station",-69.03039249,39.7460831,50,"Antarctica",""
"Jalal Abad",40.94288719,73.00251013,162299.5,"Kyrgyzstan","Jalal-Abad"
"Olongapo",14.82957155,120.2827767,265829,"Philippines","Zambales"
"Buriram",15.00043968,103.116641,47292,"Thailand","Buri Ram"
"Santiago Ixcuintla",21.81999758,-105.2200481,17077.5,"Mexico","Nayarit"
"Sukabumi",-6.909618308,106.899976,276414,"Indonesia","Jawa Barat"
"Macara",-4.379591859,-79.94998845,11748,"Ecuador","Loja"
"Puerto la Cruz",10.16995933,-64.68001612,500464,"Venezuela","Anzoátegui"
"Vladimir",56.12997052,40.4099259,314336,"Russia","Vladimir"
"Temple",31.10209251,-97.36300826,58432,"United States of America","Texas"
"Olmaliq",40.85043805,69.59501786,119768,"Uzbekistan","Tashkent"
"Ternopil",49.53598024,25.5821488,240222,"Ukraine","Ternopil'"
"Cuenca",-2.89999225,-78.99999475,281921,"Ecuador","Azuay"
"Chaman",30.92504905,66.44632117,88568,"Pakistan","Baluchistan"
"Traralgon",-38.19959471,146.5300118,16982.5,"Australia","Victoria"
"Santo Antonio",1.645002051,7.412004483,1156,"Sao Tome and Principe",""
"Poffader",-29.13291299,19.38335404,4220,"South Africa","Northern Cape"
"Shenzhen",22.55237051,114.1221231,4291796,"China","Guangdong"
"La Union",13.33199704,-87.83900052,26807,"El Salvador","La Unión"
"Gangneung",37.75587242,128.8961527,173797,"South Korea","Gangwon-do"
"Ancud",-41.86996499,-73.82997441,24241,"Chile","Los Lagos"
"Ferrara",44.85042645,11.60992672,121754,"Italy","Emilia-Romagna"
"Pensacola",30.42112632,-87.21693506,145319.5,"United States of America","Florida"
"Socorro",6.460340799,-73.26998275,21323.5,"Colombia","Santander"
"Kumbo",6.220381286,10.68000932,89728,"Cameroon","Nord-Ouest"
"Stockton",37.95813397,-121.289739,488506.5,"United States of America","California"
"Portel",-1.949972718,-50.81998356,10855,"Brazil","Pará"
"Maoming",21.92040489,110.8700179,1217715,"China","Guangdong"
"Ann Arbor",42.30037539,-83.71999089,189893,"United States of America","Michigan"
"Devils Lake",48.11221702,-98.85968693,7312,"United States of America","North Dakota"
"Paragominas",-2.959575176,-47.49000594,38095.5,"Brazil","Pará"
"Bicheno",-41.87838825,148.2886124,177,"Australia","Tasmania"
"Barranquilla",10.95998863,-74.79996688,1521245.5,"Colombia","Atlántico"
"Alice Springs",-23.70099648,133.8800345,26949,"Australia","Northern Territory"
"Eldoret",0.520005716,35.26998124,285913.5,"Kenya","Rift Valley"
"Santa Cruz",36.97194629,-122.0263904,101530.5,"United States of America","California"
"Ambanja",-13.68289996,48.45000362,26231.5,"Madagascar","Antsiranana"
"Stony Rapids",59.26657493,-105.8332664,152,"Canada","Saskatchewan"
"Pilar",-26.86948525,-58.29999211,28435,"Paraguay","Ñeembucú"
"Douglas",54.15042727,-4.480021404,31036,"Isle of Man",""
"Sagaing",21.87999903,95.9619966,78739,"Myanmar","Sagaing"
"Elko",40.83250633,-115.7619886,17537,"United States of America","Nevada"
"Buea",4.155003087,9.231003513,90088,"Cameroon","Sud-Ouest"
"Kobuk",66.9072455,-156.8809774,151,"United States of America","Alaska"
"Saraburi",14.53036501,100.8799816,70769,"Thailand","Saraburi"
"Igrim",63.19331199,64.41941646,9545,"Russia","Khanty-Mansiy"
"San Justo",-30.78288979,-60.58328943,9607,"Argentina","Santa Fe"
"Comallo",-41.03332355,-70.26657434,741,"Argentina","Río Negro"
"Zigong",29.40000002,104.780002,897480.5,"China","Sichuan"
"Ambala",30.32002138,76.82000321,146787,"India","Haryana"
"Upernavik",72.70936669,-56.14167532,1129,"Greenland","Qaasuitsup Kommunia"
"Neuquen",-38.95003986,-68.05999068,213823.5,"Argentina","Neuquén"
"Abancay",-13.63959511,-72.89000594,53981,"Peru","Apurímac"
"Fatick",14.3440021,-16.41599952,24243,"Senegal","Fatick"
"Cilacap",-7.718819561,109.0154024,1174964,"Indonesia","Jawa Tengah"
"Oshkosh",44.02510215,-88.54251306,67857.5,"United States of America","Wisconsin"
"Oldeani",-3.349628887,35.55001583,7300.5,"Tanzania","Arusha"
"Ayutthaya",14.35879925,100.5684244,113788.5,"Thailand","Phra Nakhon Si Ayutthaya"
"Melbourne",28.08331036,-80.60832035,170870,"United States of America","Florida"
"Marinette",45.10038535,-87.63047571,19170,"United States of America","Wisconsin"
"Muskegon",43.23458193,-86.24836369,70644.5,"United States of America","Michigan"
"Wichita",37.71998313,-97.32998702,378543.5,"United States of America","Kansas"
"Palm Coast",29.53800193,-81.22329574,45030,"United States of America","Florida"
"Concepcion",-36.83001422,-73.05002202,550864,"Chile","Bío-Bío"
"Rosario",-24.41960895,-57.10001367,3639,"Paraguay","San Pedro"
"Chaoyang",41.55042116,120.4199776,440150.5,"China","Liaoning"
"Maturin",9.749959126,-63.17003076,357707.5,"Venezuela","Monagas"
"Bayan Obo",41.76764305,109.9711063,27476,"China","Nei Mongol"
"Cubal",-13.03958006,14.23999874,4837,"Angola","Benguela"
"Nenana",64.56379681,-149.0930032,75,"United States of America","Alaska"
"Mamou",10.38038576,-12.1000214,56386,"Guinea","Mamou"
"Arcoverde",-8.420017071,-37.06999597,53066,"Brazil","Pernambuco"
"Holguin",20.88723798,-76.26305587,309639.5,"Cuba","Holguín"
"Salinas",36.68221702,-121.6416555,152737.5,"United States of America","California"
"Zabid",14.19508832,43.31553666,102547,"Yemen","Al Hudaydah"
"Hammerfest",70.66127993,23.68800085,9967,"Norway","Finnmark"
"Maizuru",35.4504059,135.3333309,62531.5,"Japan","Kyoto"
"Nueva San Salvador",13.67399699,-89.28999848,124694,"El Salvador","La Libertad"
"Kobenhavn",55.67856419,12.56348575,1085000,"Denmark","Hovedstaden"
"Kotelnich",58.30412722,48.31373287,28015.5,"Russia","Kirov"
"Ottawa",45.4166968,-75.7000153,978564.5,"Canada","Ontario"
"Paso Rio Mayo",-45.68337563,-70.26657434,1825,"Argentina","Chubut"
"Caldera",-27.06962807,-70.83002832,10259,"Chile","Atacama"
"Amundsen–Scott South Pole Station",-89.98289386,139.2669926,125,"Antarctica",""
"As Sidr",30.67041343,18.26662634,50,"Libya","Surt"
"Maykop",44.60997601,40.12002112,143377,"Russia","Adygey"
"Oita",33.24322797,131.5978999,412100.5,"Japan","Oita"
"Qoqon",40.54040529,70.94000037,271250,"Uzbekistan","Ferghana"
"Rome",41.89595563,12.48325842,1687226,"Italy","Lazio"
"Abra Pampa",-22.7166638,-65.6999797,4480,"Argentina","Jujuy"
"Bukachacha",52.98334088,116.9166255,1934.5,"Russia","Chita"
"Caracarai",1.816231505,-61.12767481,11368,"Brazil","Roraima"
"Nagasaki",32.76498842,129.8850329,422829.5,"Japan","Nagasaki"
