"city","latitude","longitude","population","country","province"
"Aurangabad",24.7704118,84.38000688,95929,"India","Bihar"
"Lahad Datu",5.046396097,118.3359704,82966,"Malaysia","Sabah"
"Karpinsk",59.76016237,60.00981482,30438.5,"Russia","Sverdlovsk"
"Izamal",20.93041363,-89.02005497,14570,"Mexico","Yucatán"
"Cobija",-11.03334593,-68.73330876,35511,"Bolivia","Pando"
"Maryborough",-25.54910073,152.7209,18920.5,"Australia","Queensland"
"Zhanyi",25.6004645,103.8166499,652604,"China","Yunnan"
"Feira de Santana",-12.25001585,-38.9700092,449194.5,"Brazil","Bahia"
"Petropavlovsk Kamchatskiy",53.06199241,158.6230204,182270.5,"Russia","Kamchatka"
"Kolar",13.13370607,78.13335974,135533,"India","Karnataka"
"Ndalatando",-9.299549948,14.90998368,8144,"Angola","Cuanza Norte"
"Salamanca",-31.77957314,-70.97996749,16739.5,"Chile","Coquimbo"
"Groningen",53.22040651,6.580001179,198941,"Netherlands","Groningen"
"Viedma",-40.79995278,-63.0000153,54031,"Argentina","Ciudad de Buenos Aires"
"Nandi",-17.79959959,177.4166019,27329,"Fiji","Western"
"Corvallis",44.57235557,-123.2799793,54865.5,"United States of America","Oregon"
"Chone",-0.689584535,-80.09000574,40379,"Ecuador","Manabi"
"Canatlan",24.51998781,-104.7799974,7806.5,"Mexico","Durango"
"Nema",16.61705935,-7.250007366,127500,"Mauritania","Hodh ech Chargui"
"Sete Lagoas",-19.44962807,-44.24999699,195032,"Brazil","Minas Gerais"
"Sayanogorsk",53.0894326,91.40040523,52790.5,"Russia","Krasnoyarsk"
"Apia",-13.84154504,-171.7386416,49812,"Samoa",""
"Guelma",36.46600213,7.427997486,123590,"Algeria","Guelma"
"Zaysan",47.47522748,84.85982255,14199,"Kazakhstan","East Kazakhstan"
"Guaymas",27.93001223,-110.8899862,84496.5,"Mexico","Sonora"
"Mandeville",18.03300305,-77.49999851,47115,"Jamaica","Manchester"
"Puerto Vallarta",20.67709576,-105.2449819,183969,"Mexico","Jalisco"
"Battle Creek",42.32109764,-85.17974675,62454,"United States of America","Michigan"
"Rivas",11.44037274,-85.8199919,31117,"Nicaragua","Nicaragua"
"Aleppo",36.22997072,37.1700203,2170132,"Syria","Aleppo (Halab)"
"Brindisi",40.64034751,17.93000606,96759,"Italy","Apulia"
"Richfield",38.77247703,-112.0832984,7308.5,"United States of America","Utah"
"Gyzlarbat",38.97553957,56.27779455,30229,"Turkmenistan","Balkan"
"Urgentch",41.5599813,60.64000891,126476.5,"Uzbekistan","Khorezm"
"Zigong",29.40000002,104.780002,897480.5,"China","Sichuan"
"Port-Gentil",-0.720021953,8.780021931,112999.5,"Gabon","Ogooué-Maritime"
"Luohe",33.57000388,114.02998,417356,"China","Henan"
"San Fernando",-34.58002236,-70.98996688,60746,"Chile","Libertador General Bernardo O'Higgins"
"Brownwood",31.70789532,-98.98231511,20261,"United States of America","Texas"
"Campo Belo",-20.88959186,-45.2799858,42042.5,"Brazil","Minas Gerais"
"Totonicapan",14.91399898,-91.35800061,69734,"Guatemala","Totonicapán"
"Tmassah",26.36664512,15.80000688,350,"Libya","Murzuq"
"Guerrero Negro",27.99042198,-114.1699669,13054,"Mexico","Baja California Sur"
"Price",39.59979087,-110.8100169,9175,"United States of America","Utah"
"Po",11.16900002,-1.134998478,17924,"Burkina Faso","Nahouri"
"Shah Alam",3.066695996,101.5499977,481654,"Malaysia","Selangor"
"Iksan",35.94097027,126.9454191,261545,"South Korea","Jeollabuk-do"
"Setubal",38.52995953,-8.900010011,117542,"Portugal","Lisboa"
"Shahjahanpur",27.88037701,79.90503454,320434,"India","Uttar Pradesh"
"Qinzhou",21.95042889,108.6199743,173186,"China","Guangxi"
"Guliston",40.49573102,68.79072587,74446.5,"Uzbekistan","Sirdaryo"
"Vikhorevka",56.09309938,101.2426985,166,"Russia","Irkutsk"
"Hamah",35.1503467,36.72999548,439796,"Syria","Hamah"
"Amapa",2.049989847,-50.80001062,1947,"Brazil","Amapá"
"Taipei",25.03583333,121.5683333,4759522.5,"Taiwan","Taipei City"
"Kokkola",63.83329877,23.11666622,46714,"Finland","Western Finland"
"Phan Thiet",10.933737,108.1000577,248749,"Vietnam","Bình Thuận "
"Gorontalo",0.549978047,123.0700484,254846,"Indonesia","Gorontalo"
"Covington",39.0840084,-84.50859908,313064.5,"United States of America","Kentucky"
"Aracatuba",-21.20998574,-50.45000615,166305,"Brazil","São Paulo"
"Venado Tuerto",-33.74958209,-61.97000065,52079,"Argentina","Santa Fe"
"Mangai",-4.039612611,19.53001176,19946,"Congo (Kinshasa)","Bandundu"
"Kochi",10.01500755,76.22391557,1061848,"India","Kerala"
"Hadiboh",12.65187502,54.02392696,9970.5,"Yemen","Hadramawt"
"Villa Ahumada",30.61044293,-106.5099952,8213.5,"Mexico","Chihuahua"
"Toowoomba",-27.56453327,151.9555204,86711,"Australia","Queensland"
"Buy",58.48468467,41.52437984,25781.5,"Russia","Kostroma"
"Kutahya",39.42000856,29.92999711,168459.5,"Turkey","Kütahya"
"Mbanza-Ngungu",-5.249616273,14.86001257,141950.5,"Congo (Kinshasa)","Bas-Congo"
"Mercedes",-33.68958576,-65.4699679,49345,"Argentina","San Luis"
"Fernandopolis",-20.2696297,-50.26004358,55587,"Brazil","São Paulo"
"Tirunelveli",8.730408955,77.68997595,489022,"India","Tamil Nadu"
"Opobo",4.570404479,7.559993041,34911,"Nigeria","Akwa Ibom"
"Cumberland",39.65317263,-78.76277409,20831.5,"United States of America","Maryland"
"Paulo Afonso",-9.330659161,-38.26565943,85350,"Brazil","Bahia"
"Savonlinna",61.86662294,28.88334265,20233.5,"Finland","Southern Savonia"
"St. George",37.10415509,-113.583336,79988,"United States of America","Utah"
"Gulfport",30.3675637,-89.09276371,76646,"United States of America","Mississippi"
"Campoalegre",2.690002461,-75.33001205,17058.5,"Colombia","Huila"
"San Felipe",31.02411277,-114.8496153,18068,"Mexico","Baja California"
"Tambov",52.73002301,41.43001868,296207.5,"Russia","Tambov"
"Orsha",54.51531455,30.42154333,130276.5,"Belarus","Vitsyebsk"
"Kracheh",12.46899612,106.0239967,19975,"Cambodia","Krâchéh"
"Kirovsk",67.60908897,33.66873531,22949,"Russia","Murmansk"
"Rajshahi",24.37498374,88.6050203,755066.5,"Bangladesh","Rajshahi"
"Castries",14.00197349,-61.00000818,24298.5,"Saint Lucia",""
"Lota",-37.08958494,-73.1600153,32702,"Chile","Bío-Bío"
"Schaffhausen",47.70600309,8.632998523,33863,"Switzerland","Schaffhausen"
"Yibin",28.7699868,104.5700406,572055.5,"China","Sichuan"
"Talkeetna",62.3237785,-150.1094269,1078,"United States of America","Alaska"
"Haikou",20.05000226,110.3200256,1606808.5,"China","Hainan"
"Caazapa",-26.20001707,-56.38000594,5504,"Paraguay","Caazapá"
"Taltal",-25.40001422,-70.47002446,8947.5,"Chile","Antofagasta"
"Sunchales",-30.93290648,-61.56661442,12655,"Argentina","Santa Fe"
"Wuppertal",51.25000999,7.169991006,562997.5,"Germany","Nordrhein-Westfalen"
"Narayanganj",23.62040448,90.49999508,223622,"Bangladesh","Dhaka"
"Santa Fe",35.68692893,-105.9372394,80943,"United States of America","New Mexico"
"San Jose",9.93501243,-84.08405135,642862,"Costa Rica","San José"
"San Juan de Nicaragua",10.92040448,-83.69999211,863,"Nicaragua","Nicaragua"
"San Pedro",-24.08996499,-57.07998906,7351,"Paraguay","San Pedro"
