"city","latitude","longitude","population","country","province"
"Djanet",24.5529057,9.482252969,666,"Algeria","Illizi"
"Samarra",34.19399705,43.87500062,158508,"Iraq","Sala ad-Din"
"Itauna",-20.06003009,-44.57002914,70233,"Brazil","Minas Gerais"
"Ukiah",39.15423667,-123.2108621,21826.5,"United States of America","California"
"Limerick",52.664704,-8.623050172,84066,"Ireland","Limerick"
"Seward",60.1261607,-149.4699827,2900,"United States of America","Alaska"
"Baures",-13.58001219,-63.58005742,2422,"Bolivia","El Beni"
"Bordertown",-36.31619546,140.7666426,1976,"Australia","South Australia"
"Berri",-34.28293455,140.6000378,4523,"Australia","South Australia"
"Nikopol",47.56659141,34.40620967,119110,"Ukraine","Dnipropetrovs'k"
"Erldunda",-25.23330605,133.1999727,10,"Australia","Northern Territory"
"Cabo de Santo Agostinho",-8.289999167,-35.02999129,144662,"Brazil","Pernambuco"
"Yilan",24.75,121.75,122915.5,"Taiwan","Yilan"
"Mekambo",1.017081318,13.93329911,3170,"Gabon","Ogooué-Ivindo"
"Eldikan",60.80002138,135.1833142,1516,"Russia","Sakha (Yakutia)"
"Garca",-22.22000161,-49.65997685,38460,"Brazil","São Paulo"
"Proddatur",14.7504291,78.57002559,187624,"India","Andhra Pradesh"
"Lublin",51.25039756,22.57272009,358001,"Poland","Lublin"
"Gangneung",37.75587242,128.8961527,173797,"South Korea","Gangwon-do"
"Massawa",15.61011822,39.45003617,142564,"Eritrea","Debub"
"Truth or Consequences",33.13359641,-107.2528956,6479,"United States of America","New Mexico"
"Hulin",45.76902671,132.9922334,42559,"China","Heilongjiang"
"Ihosy",-22.39962889,46.11665767,13902,"Madagascar","Fianarantsoa"
"Apsheronsk",44.46871848,39.72872717,43163.5,"Russia","Krasnodar"
"Betanzos",-19.55995726,-65.45002079,4629.5,"Bolivia","Potosí"
"Rock Hill",34.94038535,-81.03000004,77165,"United States of America","South Carolina"
"Athens",33.96129783,-83.3780221,78017.5,"United States of America","Georgia"
"Temirtau",50.06501772,72.96499304,167193.5,"Kazakhstan","Qaraghandy"
"Georgievsk",44.15990013,43.46994584,59158.5,"Russia","Stavropol'"
"Yamburg",68.35038739,77.13331742,48488,"Russia","Yamal-Nenets"
"Choele Choel",-39.26660968,-65.68331405,9895.5,"Argentina","Río Negro"
"Mazyr",52.04595624,29.27215613,100936,"Belarus","Homyel'"
"Gadabay",40.5655556,45.8161111,8657,"Azerbaijan","Gadabay"
"Carlisle",54.87999514,-2.929986818,69270,"United Kingdom","Cumbria"
"Salinopolis",-0.609486065,-47.33998926,32384.5,"Brazil","Pará"
"Leninobod",39.75000301,69.00000365,11468,"Tajikistan","Leninabad"
"Ostersund",63.1833126,14.64999955,44559,"Sweden","Jämtland"
"Karaj",35.8003587,50.97000484,1423000,"Iran","Tehran"
"Norway House",53.96658836,-97.83328963,5500,"Canada","Manitoba"
"Nyeri",-0.41699699,36.95100363,51084,"Kenya","Central"
"La Coruna",43.32997662,-8.419987632,306614.5,"Spain","Galicia"
"Burnie",-41.06660317,145.9166642,18490.5,"Australia","Tasmania"
"Linfen",36.08034161,111.520004,533283,"China","Shanxi"
"Hato Mayor",18.76400114,-69.25699747,35999,"Dominican Republic","Hato Mayor"
"Luzhou",28.87998008,105.380017,1537000,"China","Sichuan"
"Bestobe",52.49967531,73.0997135,7189,"Kazakhstan","Aqmola"
"Rajshahi",24.37498374,88.6050203,755066.5,"Bangladesh","Rajshahi"
"Gorno Altaysk",51.96133608,85.95768835,57392.5,"Russia","Gorno-Altay"
"Gandhinagar",23.30039817,72.63994828,195891,"India","Dadra and Nagar Haveli"
"Salamanca",40.97040489,-5.670000449,160456.5,"Spain","Castilla y León"
"Clarksburg",39.28327272,-80.33691573,22502.5,"United States of America","West Virginia"
"Tangail",24.24997845,89.92003048,180144,"Bangladesh","Dhaka"
"Zhangzhou",24.52037539,117.6700162,2434799.5,"China","Fujian"
"Juliaca",-15.49999835,-70.13996708,234428,"Peru","Callao"
"Tangier",35.74728701,-5.832703696,719208,"Morocco","Tanger - Tétouan"
"Aleksin",54.5143327,37.09436601,59194,"Russia","Tula"
"Ypacarai",-25.40998777,-57.27997685,23805.5,"Paraguay","Asunción"
"Sokoto",13.06001548,5.240031289,648019.5,"Nigeria","Sokoto"
"Cork",51.89860089,-8.49577112,162852,"Ireland","Cork"
"Lancaster",39.71921511,-82.6053044,42356,"United States of America","Ohio"
"Nacala",-14.51861123,40.71502356,212212.5,"Mozambique","Nampula"
"Richmond",-33.59951373,150.7399873,9720,"Australia","New South Wales"
"Qaratau",43.18538597,70.45997799,35743,"Kazakhstan","Zhambyl"
"Nova Iguacu",-22.74002155,-43.46996708,844583,"Brazil","Rio de Janeiro"
"Castillos",-34.16960814,-53.82998071,7686,"Uruguay","Rocha"
"San Borja",-14.81962645,-66.84996118,19640,"Bolivia","El Beni"
"Kimry",56.86912437,37.34437659,50531,"Russia","Tver'"
"Buynaksk",42.8334953,47.11303096,75800,"Russia","Dagestan"
"Sydney",46.06611452,-60.17998071,37538,"Canada","Nova Scotia"
"Guantanamo",20.1452936,-75.20614364,245069.5,"Cuba","Guantánamo"
"Mereeg",3.766577575,47.2999963,548,"Somalia","Galguduud"
"Rezekne",56.50002545,27.3165649,38219,"Latvia","Latgale"
"Albany",31.57873008,-84.15582992,82280,"United States of America","Georgia"
"Magong",23.56666667,119.5833333,56435,"Taiwan","Penghu"
"Rothera Station",-67.5647756,-68.12354055,76,"Antarctica",""
"Yishui",35.79043683,118.6199841,94115,"China","Shandong"
"Nasir",8.600391051,33.06660152,1741,"South Sudan","Upper Nile"
"Anda",46.39999595,125.3200402,181402,"China","Heilongjiang"
"Burylbaytal",44.93874147,74.03025102,92.5,"Kazakhstan","Zhambyl"
"Gawler",-34.60735919,138.7263537,15542.5,"Australia","South Australia"
"Bafra",41.56817202,35.90689327,95198,"Turkey","Samsun"
"Norman Wells",65.28372703,-126.8499681,650,"Canada","Northwest Territories"
"Unalakleet",63.87342552,-160.7880516,741,"United States of America","Alaska"
"Ponce",18.00038576,-66.61664209,156484,"Puerto Rico",""
"Choma",-16.80947915,26.97002274,42324,"Zambia","Southern"
"Bongor",10.28594708,15.38716386,112229.5,"Chad","Mayo-Kebbi Est"
"Wailuku",20.89147544,-156.5047213,32769.5,"United States of America","Hawaii"
"Amasya",40.65368003,35.83304765,77700.5,"Turkey","Amasya"
"Manizales",5.059986998,-75.52000045,366831,"Colombia","Caldas"
"Campeche",19.82998985,-90.49999048,204048.5,"Mexico","Campeche"
"Monterrey",25.66999514,-100.3299848,2417437,"Mexico","Nuevo León"
"Krishnanagar",23.38034161,88.5300378,145926,"India","West Bengal"
"Shangqiu",34.45041526,115.6500362,967109,"China","Henan"
"Beni Suef",29.08038129,31.09002966,339537,"Egypt","Bani Suwayf"
"Mejillones",-23.09999957,-70.44999984,2041,"Chile","Antofagasta"
"Maanshan",31.73040041,118.4800443,1000121,"China","Anhui"
"Yangzhou",32.39999778,119.4300122,539715,"China","Jiangsu"
"Boli",45.75636599,130.5759468,83317,"China","Heilongjiang"
"Penola",-37.38295205,140.8166654,1513,"Australia","South Australia"
"Chitipa",-9.716217022,33.26664099,11118,"Malawi","Chitipa"
