"city","latitude","longitude","population","country","province"
"Phangnga",8.451000086,98.53399857,9676,"Thailand","Phangnga"
"Glenwood Springs",39.54658999,-107.3247,11272,"United States of America","Colorado"
"Savanna La Mar",18.1639981,-77.94800051,25260.5,"Jamaica","Westmoreland"
"Yantai",37.53040814,121.4000211,1417666,"China","Shandong"
"Sibay",52.70911989,58.63873572,54696,"Russia","Bashkortostan"
"Decatur",39.8407064,-88.95473596,74967.5,"United States of America","Illinois"
"Embu",-0.519569073,37.45000321,46771,"Kenya","Eastern"
"Taibao",23.45,120.3333333,34665,"Taiwan","Chiayi"
"Suwon",37.25778912,127.0108931,1078000,"South Korea","Gyeonggi-do"
"Puerto Williams",-54.93330198,-67.61671025,2381,"Chile","Magallanes y Antártica Chilena"
"Roseau",15.30101564,-61.38701298,19953.5,"Dominica","Saint George"
"Poplar Bluff",36.76019676,-90.40268376,18575,"United States of America","Missouri"
"Ghazni",33.56331179,68.41782873,129892.5,"Afghanistan","Ghazni"
"Samandagi",36.11705772,35.93329993,93638,"Turkey","Hatay"
"Somoto",13.47599712,-86.58299659,20316,"Nicaragua","Madriz"
"Szekesfehervar",47.19467613,18.40806474,122959.5,"Hungary","Fejér"
"Jian",27.13042279,114.9999983,490221,"China","Jiangxi"
"Principe da Beira",-12.41667234,-64.41664718,956,"Brazil","Rondônia"
"Jijel",36.82199703,5.76600356,148000,"Algeria","Jijel"
"Shenyeng",41.80497927,123.4499735,4149596,"China","Liaoning"
"Velsk",61.06739524,42.0974198,25729,"Russia","Arkhangel'sk"
"Rock Island",41.49339622,-90.53461369,102055.5,"United States of America","Illinois"
"Piso Firme",-13.68295164,-61.86662195,72,"Bolivia","Santa Cruz"
"Wellington",-41.29997394,174.7832743,296300,"New Zealand","Manawatu-Wanganui"
"Maoming",21.92040489,110.8700179,1217715,"China","Guangdong"
"Roebourne",-20.7829317,117.1333048,11281.5,"Australia","Western Australia"
"Peshawar",34.00501609,71.53500281,1260886.5,"Pakistan","N.W.F.P."
"Bandar-e Bushehr",28.91997764,50.83001339,167218.5,"Iran","Bushehr"
"Kumba",4.640374368,9.439981647,131122,"Cameroon","Sud-Ouest"
"Debrecen",47.53046958,21.63003861,217705,"Hungary","Hajdú-Bihar"
"Bouira",36.38047833,3.900009724,110144,"Algeria","Bouira"
"Chau Doc",10.70039207,105.1166739,70239,"Vietnam","An Giang"
"Shimoga",13.93037579,75.56002844,486802.5,"India","Karnataka"
"Denali Park",63.73309816,-148.9140994,1063,"United States of America","Alaska"
"Asansol",23.6833333,86.9833333,1328000,"India","West Bengal"
"Kananga",-5.890042299,22.40001745,614273,"Congo (Kinshasa)","Kasaï-Occidental"
"Jiaozuo",35.2500047,113.2200036,687270,"China","Henan"
"Ati",13.21706016,18.33328894,24723.5,"Chad","Batha"
"Ype Jhu",-23.91002765,-55.45998458,598,"Paraguay","Canindeyú"
"Troyes",48.34039431,4.083357705,61244,"France","Champagne-Ardenne"
"Kyoto",35.02999229,135.7499979,1632320,"Japan","Kyoto"
"Swan Hill",-35.33961424,143.5400134,9073,"Australia","Victoria"
"Tombstone",31.71314048,-110.066884,1396.5,"United States of America","Arizona"
"Kasane",-17.80957314,25.15003048,7774.5,"Botswana","North-West"
"An Najaf",32.00033225,44.33537105,612776,"Iraq","An-Najaf"
"Palma",39.57426271,2.65424597,319951,"Spain","Islas Baleares"
"Novara",45.45000226,8.61998002,88966,"Italy","Piemonte"
"Durango",37.27564333,-107.8799891,19127.5,"United States of America","Colorado"
"Erldunda",-25.23330605,133.1999727,10,"Australia","Northern Territory"
"Tuymazy",54.6047923,53.69433467,61826,"Russia","Bashkortostan"
"Tayshet",55.92770896,97.98770341,44975,"Russia","Irkutsk"
"Volgodonsk",47.50997988,42.15994828,122434.5,"Russia","Rostov"
"Linchuan",27.97034568,116.3600187,241104,"China","Jiangxi"
"Sangli",16.86040367,74.57502397,601214,"India","Maharashtra"
"Haikou",20.05000226,110.3200256,1606808.5,"China","Hainan"
"Mazatlan",23.22110069,-106.4200007,361460.5,"Mexico","Sinaloa"
"Nyukzha",56.53121218,121.613083,10,"Russia","Amur"
"Yancheng",33.3855556,120.1252778,839000,"China","Jiangsu"
"Ife",7.480433572,4.560021117,482365,"Nigeria","Osun"
"Tocopilla",-22.09003538,-70.18998987,22355.5,"Chile","Antofagasta"
"Ivdel",60.69364545,60.41325273,11466.5,"Russia","Sverdlovsk"
"Rawalpindi",33.59997622,73.04002722,1800550.5,"Pakistan","Punjab"
"Changchun",43.86500856,125.3399873,2860210.5,"China","Jilin"
"Eugene",44.05001019,-123.1000161,195183,"United States of America","Oregon"
"Bandung",-6.950029278,107.5700126,2046859.5,"Indonesia","Jawa Barat"
"Ipora",-16.45001788,-51.12999048,23354,"Brazil","Goiás"
"Abadla",31.01708478,-2.733306317,14364,"Algeria","Béchar"
"Mbulu",-3.849598369,35.53001705,10421,"Tanzania","Arusha"
"Fuyu",45.18038047,124.8200191,247804.5,"China","Jilin"
"Portland",43.67216158,-70.2455274,99504,"United States of America","Maine"
"Sion",46.23900303,7.353999482,28045,"Switzerland","Valais"
"Piedras Negras",28.70763918,-100.5316521,137295,"Mexico","Coahuila"
"Sincelejo",9.290426452,-75.37995732,239787.5,"Colombia","Sucre"
"State College",40.79372316,-77.8602452,64880.5,"United States of America","Pennsylvania"
"Oviedo",43.35049217,-5.829990683,223524.5,"Spain","Principado de Asturias"
"Melitopol",46.83782452,35.37746822,135850,"Ukraine","Zaporizhzhya"
"Bundaberg",-24.87906411,152.3508968,46062,"Australia","Queensland"
"Sukhumi",43.02002138,41.02001786,76219,"Georgia","Abkhazia"
"Asyut",27.18997988,31.17994665,420585,"Egypt","Asyut"
"Davenport",41.55398684,-90.58753036,178282.5,"United States of America","Iowa"
"Santa Cruz",36.97194629,-122.0263904,101530.5,"United States of America","California"
"Tranqueras",-31.20002195,-55.74996688,4775.5,"Uruguay","Rivera"
"Mudon",16.26183555,97.72146643,120711.5,"Myanmar","Mon"
"Palm Coast",29.53800193,-81.22329574,45030,"United States of America","Florida"
"Zhigansk",66.76970868,123.3711153,3237,"Russia","Sakha (Yakutia)"
"Dire Dawa",9.58999473,41.86001827,250325.5,"Ethiopia","Dire Dawa"
"Edmundston",47.37941937,-68.3332815,17894,"Canada","New Brunswick"
"Elgin",42.03946108,-88.28991866,244050,"United States of America","Illinois"
"Novo Airao",-2.620784486,-60.94378422,9049,"Brazil","Amazonas"
"Middelburg",-31.50000364,25.00998734,10964,"South Africa","Eastern Cape"
"Az Zarqa",32.06999208,36.1000081,843678,"Jordan","Zarqa"
"Mizdah",31.43372601,12.98333126,16379.5,"Libya","Mizdah"
"Buon Me Thuot",12.66704205,108.0499833,248460,"Vietnam","Dak Lak"
"Kamina",-8.730023988,25.00998734,101180,"Congo (Kinshasa)","Katanga"
"Tuktoyaktuk",69.45477459,-133.0492013,899.5,"Canada","Northwest Territories"
"Comayagua",14.46039512,-87.64998356,64963,"Honduras","Comayagua"
"La Asuncion",11.03333403,-63.8833315,35084,"Venezuela","Nueva Esparta"
"Marka",1.776569843,44.85327226,1958,"Somalia","Shabeellaha Hoose"
"Maiduguri",11.84996014,13.16001298,704230,"Nigeria","Borno"
"Port Moresby",-9.464707826,147.1925036,267434.5,"Papua New Guinea","Central"
