"city","latitude","longitude","population","country","province"
"Baiquan",47.60183474,126.0818542,52679.5,"China","Heilongjiang"
"Penticton",49.50037518,-119.5832799,34035,"Canada","British Columbia"
"Yingkow",40.67034568,122.2800191,693079.5,"China","Liaoning"
"Mweka",-4.839615459,21.5699906,45222,"Congo (Kinshasa)","Kasaï-Occidental"
"Timbedra",16.25041506,-8.166618084,245,"Mauritania","Hodh ech Chargui"
"Hudson Bay",52.8504291,-102.3832961,1909,"Canada","Saskatchewan"
"Luoyang",34.67998781,112.4700752,1552790.5,"China","Henan"
"Aliwal North",-30.68956216,26.71003861,26423,"South Africa","Eastern Cape"
"Georgetown",6.801973693,-58.16702865,249683.5,"Guyana","East Berbice-Corentyne"
"Calama",-22.45001341,-68.91998987,134336.5,"Chile","Antofagasta"
"Pampa del Infierno",-26.51658689,-61.16658716,2921,"Argentina","Chaco"
"Kilifi",-3.609613018,39.85001176,63228.5,"Kenya","Coast"
"Tonghua",41.67997398,125.7499882,27227,"China","Jilin"
"Tuxpan",21.93040428,-105.2699675,26115,"Mexico","Nayarit"
"Sialkote",32.5200163,74.5600378,477396,"Pakistan","Punjab"
"Manhattan",39.19402753,-96.59243514,51289,"United States of America","Kansas"
"Qaqortoq",60.72890973,-46.03641168,3224,"Greenland","Kommune Kujalleq"
"Charlottetown",46.24928164,-63.13132512,36847.5,"Canada","Prince Edward Island"
"Tarija",-21.51668537,-64.749986,155513,"Bolivia","Tarija"
"Upernavik",72.70936669,-56.14167532,1129,"Greenland","Qaasuitsup Kommunia"
"Roma",-26.55937498,148.7907006,4560.5,"Australia","Queensland"
"Egvekinot",66.32213166,-179.1837225,2248,"Russia","Chukchi Autonomous Okrug"
"Eagle Pass",28.71102399,-100.4892774,39683,"United States of America","Texas"
"Gaya",11.88817486,3.446652383,29394.5,"Niger","Dosso"
"Pallasovka",50.04773195,46.87733476,9960.5,"Russia","Volgograd"
"Kitakyushu",33.87039899,130.8200146,990286.5,"Japan","Fukuoka"
"Hinche",19.14300009,-72.0039956,18590,"Haiti","Centre"
"Samut Songkhram",13.41299699,100.0009986,35065,"Thailand","Samut Songkhram"
"Hughenden",-20.85000771,144.2000248,421,"Australia","Queensland"
"Cadiz",36.53499086,-6.225005332,153932.5,"Spain","Andalucía"
"Timashevsk",45.62474611,38.94438228,44024,"Russia","Krasnodar"
"Baykonur",45.69135703,63.24134884,36175,"Kazakhstan","Qyzylorda"
"Xiangtan",27.85043052,112.9000232,2183454,"China","Hunan"
"Ouesso",1.609990864,16.05001745,26117.5,"Congo (Brazzaville)","Sangha"
"Datong",40.08001996,113.2999987,1462839,"China","Shanxi"
"La Grande",45.32468691,-118.0866012,13646,"United States of America","Oregon"
"Calabozo",8.930396748,-67.43997685,110907,"Venezuela","Guárico"
"Hegang",47.40001243,130.3700162,657833.5,"China","Heilongjiang"
"Cuauhtemoc",28.42574424,-106.8695856,84967.5,"Mexico","Chihuahua"
"Sotik",-0.679559307,35.12001623,36942.5,"Kenya","Rift Valley"
"Kuala Lipis",4.18400112,102.0420006,15448,"Malaysia","Pahang"
"Lecce",40.36039044,18.14999263,122942.5,"Italy","Apulia"
"Ishim",56.15022768,69.44980709,60798,"Russia","Tyumen'"
"Kisangani",0.520005716,25.22000036,558814,"Congo (Kinshasa)","Orientale"
"Bida",9.080413431,6.01001013,172752.5,"Nigeria","Niger"
"Udine",46.07001609,13.2400081,107019.5,"Italy","Friuli-Venezia Giulia"
"Punta del Este",-34.96997272,-54.94998987,84140,"Uruguay","Maldonado"
"Tula",54.19995913,37.62994055,479155.5,"Russia","Tula"
"Tucumcari",35.16980288,-103.725514,5259.5,"United States of America","New Mexico"
"Melo",-32.35948606,-54.17998519,53258.5,"Uruguay","Cerro Largo"
"Winchester",39.1787313,-78.16663477,39418,"United States of America","Virginia"
"Tiznit",29.71042035,-9.73998458,56398.5,"Morocco","Souss - Massa - Draâ"
"Walla Walla",46.06515851,-118.3418828,37864,"United States of America","Washington"
"Urgentch",41.5599813,60.64000891,126476.5,"Uzbekistan","Khorezm"
"Tecuala",22.40042727,-105.4599817,12752,"Mexico","Nayarit"
"Brandon",49.83327476,-99.94998214,27326,"Canada","Manitoba"
"Bermejo",-22.72958291,-64.34998458,36544,"Bolivia","Tarija"
"Kogalym",62.04462242,74.49409867,58192,"Russia","Khanty-Mansiy"
"Kerewan",13.49399711,-16.09499647,2751,"The Gambia","Lower River"
"Safi",32.31997683,-9.239989259,320819.5,"Morocco","Doukkala - Abda"
"Ingeniero Guillermo N. Juarez",-23.90000242,-61.84998214,6453,"Argentina","Formosa"
"Ilebo",-4.319595521,20.60999752,71125.5,"Congo (Kinshasa)","Kasaï-Occidental"
"Devils Lake",48.11221702,-98.85968693,7312,"United States of America","North Dakota"
"Cheremkhovo",53.15880821,103.0738529,51686.5,"Russia","Irkutsk"
"San Carlos",10.55037539,123.3800036,6353,"Philippines","Negros Occidental"
"Fuzhou",26.07999595,119.3000459,1892860,"China","Fujian"
"Rurrenabaque",-14.46001015,-67.55999536,11749,"Bolivia","La Paz"
"Rivne",50.61658612,26.25280554,253261,"Ukraine","Rivne"
"Pathum Thani",14.01711468,100.5333361,154412,"Thailand","Pathum Thani"
"Qusmuryn",52.45799827,64.59997392,4345.5,"Kazakhstan","Qostanay"
"Keluang",2.038310973,103.317869,163264,"Malaysia","Johor"
"Brownwood",31.70789532,-98.98231511,20261,"United States of America","Texas"
"Byron Bay",-28.65650796,153.6128869,5244.5,"Australia","New South Wales"
"Yarumal",7.030590229,-75.5904871,35315,"Colombia","Antioquia"
"Gurgaon",28.45000633,77.01999101,197340,"India","Haryana"
"Natal",-6.983825664,-60.26994938,980588,"Brazil","Amazonas"
"Guangzhou",23.1449813,113.3250101,5990912.5,"China","Guangdong"
"Ningbo",29.87997072,121.5500378,1321433.5,"China","Zhejiang"
"Arica",-18.50002195,-70.28998377,178446.5,"Chile","Arica y Parinacota"
"Lille",50.64996909,3.080008096,636164,"France","Nord-Pas-de-Calais"
"Jalal Abad",40.94288719,73.00251013,162299.5,"Kyrgyzstan","Jalal-Abad"
"Prieska",-29.65954751,22.73002315,7640.5,"South Africa","Northern Cape"
"Ceres",-15.30331785,-49.60519983,18658.5,"Brazil","Goiás"
"Cheboksary",56.12997052,47.25002519,444027.5,"Russia","Chuvash"
"Paragominas",-2.959575176,-47.49000594,38095.5,"Brazil","Pará"
"Dila",6.410421365,38.3100024,47021,"Ethiopia","Southern Nations, Nationalities and Peoples"
"Ikela",-1.182939434,23.26657955,291,"Congo (Kinshasa)","Équateur"
"Mohembo",-18.29956907,21.8000024,757,"Botswana","North-West"
"Bordertown",-36.31619546,140.7666426,1976,"Australia","South Australia"
"Sogamoso",5.719998392,-72.94000289,120071.5,"Colombia","Boyacá"
"Elephant Island, South Shetland Islands",-61.99958901,-57.99998458,3,"Antarctica",""
"Liaoyang",41.27999839,123.1800158,740945,"China","Liaoning"
"Purnia",25.78541445,87.4799727,198453,"India","Bihar"
"Sol-lletsk",51.1602997,54.99988806,25155,"Russia","Orenburg"
"Ocala",29.1873515,-82.14026819,95470,"United States of America","Florida"
"Sodo",6.900003885,37.7499849,65737,"Ethiopia","Southern Nations, Nationalities and Peoples"
"Sariwon",38.50700411,125.7620047,154942,"North Korea","Hwanghae-bukto"
"Farim",12.49299903,-15.22700042,6792,"Guinea Bissau","Oio"
"Yorkton",51.21706626,-102.4665469,14377.5,"Canada","Saskatchewan"
"Muineachan",54.25,-6.9666667,5937,"Ireland","Monaghan"
