"city","latitude","longitude","population","country","province"
"Ciudad Obregon",27.46660382,-109.9249805,273082,"Mexico","Sonora"
"Gaoua",10.32499811,-3.174002407,28023,"Burkina Faso","Poni"
"Fort Simpson",61.84998313,-121.3332764,283,"Canada","Northwest Territories"
"Mossendjo",-2.939628073,12.71998816,24583.5,"Congo (Brazzaville)","Niari"
"As Sidr",30.67041343,18.26662634,50,"Libya","Surt"
"Dodge City",37.76005821,-100.018195,25237.5,"United States of America","Kansas"
"Yakutsk",62.03495892,129.7350162,220813,"Russia","Sakha (Yakutia)"
"Arua",3.020369892,30.90001542,154700,"Uganda","Arua Municipality"
"Mozdok",43.75431765,44.65436967,43262.5,"Russia","North Ossetia"
"Laranjal do Jari",-0.850039857,-52.48001144,43344,"Brazil","Amapá"
"San Jose",-17.85003579,-60.77999577,9211,"Bolivia","Santa Cruz"
"Kamloops",50.66666058,-120.3332858,68671,"Canada","British Columbia"
"Pond Inlet",72.68498069,-78.00005579,1549,"Canada","Nunavut"
"Trablous",34.42000368,35.8699963,361286,"Lebanon","North Lebanon"
"Linxi",43.51707115,118.0333016,679,"China","Nei Mongol"
"Yangjiang",21.85040916,111.9700024,751181.5,"China","Guangdong"
"Havana",23.13195884,-82.36418217,2082458.5,"Cuba","Ciudad de la Habana"
"Kingoonya",-30.89957518,135.2999996,50,"Australia","South Australia"
"Dund-Us",48.01664146,91.63325924,26596.5,"Mongolia","Hovd"
"Chaghcharan",34.5167011,65.25000063,15000,"Afghanistan","Ghor"
"Caballococha",-3.916260967,-70.50834253,3195,"Peru","Loreto"
"Pyongyang",39.0194387,125.7546907,2899398.5,"North Korea","P'yongyang"
"Ende",-8.862315655,121.6489465,60930,"Indonesia","Nusa Tenggara Timur"
"Uliastay",47.75001691,96.81671545,8056,"Mongolia","Dzavhan"
"Ferkessedougou",9.600407531,-5.200029136,57410,"Ivory Coast","Savanes"
"Roxas",11.58527346,122.7511014,91880.5,"Philippines","Capiz"
"Jinshi",29.63210472,111.851715,178453,"China","Hunan"
"Al Qunaytirah",33.12566408,35.82359086,2235.5,"Syria","Golan"
"Giurgiu",43.92999911,25.8399995,69067,"Romania","Giurgiu"
"Toumodi",6.552000132,-5.019002394,39005,"Ivory Coast","Lacs"
"Diapaga",12.07700108,1.796004571,26013,"Burkina Faso","Tapoa"
"Bitlis",38.39400012,42.12299765,52960,"Turkey","Bitlis"
"Trout River",49.48365786,-58.11664413,452,"Canada","Newfoundland and Labrador"
"Gjirokaster",40.07899809,20.14900256,23437,"Albania","Gjirokastër"
"Lutsk",50.7471983,25.33337846,211980,"Ukraine","Volyn"
"Ouargla",31.96997235,5.340025186,176271,"Algeria","Ouargla"
"Freeport",28.95948427,-95.35687748,43762,"United States of America","Texas"
"Lenger",42.18991701,69.87991003,22148,"Kazakhstan","South Kazakhstan"
"Sefra",32.76041506,-0.579949383,51118,"Algeria","Naâma"
"Linz",48.31923281,14.28878129,265161.5,"Austria","Oberösterreich"
"Port Blair",11.66702557,92.73598262,119806,"India","Andaman and Nicobar"
"Tartu",58.38394147,26.70988358,90033.5,"Estonia","Tartu"
"General Eugenio Alejandrino Garay",-20.51995034,-62.209986,972,"Paraguay","Boquerón"
"San Mateo",37.55691815,-122.3130616,361806.5,"United States of America","California"
"Cartago",9.86997764,-83.92997807,111770,"Costa Rica","Cartago"
"Solenzo",12.1833333,-4.0833333,10385,"Burkina Faso","Banwa"
"Apatzingan",19.07998395,-102.3500165,92616.5,"Mexico","Michoacán"
"Nurnberg",49.44999066,11.0799849,618270.5,"Germany","Bayern"
"Bentol",6.433299035,-10.60000152,4089,"Liberia","Montserrado"
"Tunja",5.550448017,-73.37002832,139445.5,"Colombia","Boyacá"
"Puerto Villamil",-0.933342266,-91.01665145,2000,"Ecuador","Galápagos"
"Independence",39.09111391,-94.41528121,130695,"United States of America","Missouri"
"Selawik",66.60387901,-160.0093911,832,"United States of America","Alaska"
"Los Mochis",25.78998781,-108.9999982,231824,"Mexico","Sinaloa"
"Matochkin Shar",73.26999163,56.44969682,10,"Russia","Arkhangel'sk"
"Hermanus",-34.40959349,19.22992672,16274.5,"South Africa","Western Cape"
"Sylhet",24.90355613,91.87360632,237000,"Bangladesh","Sylhet"
"Nueve de Julio",-35.44596434,-60.88998906,26716,"Argentina","Ciudad de Buenos Aires"
"Joacaba",-27.17003538,-51.4999679,31196,"Brazil","Santa Catarina"
"Bacabal",-4.229988588,-44.79998926,57296.5,"Brazil","Maranhão"
"Springfield",42.12002464,-72.57999903,287003.5,"United States of America","Massachusetts"
"Port Charlotte",27.00004315,-82.10569666,56806,"United States of America","Florida"
"Skagway",59.45832033,-135.3138959,955,"United States of America","Alaska"
"Fulin",29.35000307,102.7167171,1049,"China","Sichuan"
"Jurado",7.121747456,-77.75640141,2351,"Colombia","Chocó"
"La Libertad",16.78043439,-90.11998784,8584.5,"Guatemala","Petén"
"Kalispell",48.19776735,-114.3159786,25040,"United States of America","Montana"
"Thika",-1.039589011,37.09002519,93571.5,"Kenya","Central"
"Khvoy",38.53039878,44.97000932,189049,"Iran","West Azarbaijan"
"Mangyshlak",43.69045506,51.14173561,147443,"Kazakhstan","Mangghystau"
"Incheon",37.47614789,126.6422334,2550000,"South Korea","Inch'on-gwangyoksi"
"Ed Damazin",11.77040428,34.34998572,114030,"Sudan","Blue Nile"
"Frauenfeld",47.56799717,9.108000502,21979,"Switzerland","Thurgau"
"Pacasmayo",-7.400647767,-79.57060592,34223.5,"Peru","La Libertad"
"Daman",20.41700828,72.85001298,39737,"India","Dadra and Nagar Haveli"
"Arusha",-3.36001585,36.66999914,330605,"Tanzania","Arusha"
"Tupa",-21.92999347,-50.5199502,51798.5,"Brazil","São Paulo"
"Berlin",52.52181866,13.40154862,3250007,"Germany","Berlin"
"Victoria Falls",-17.92961749,25.8400142,23964.5,"Zimbabwe","Matabeleland North"
"San Jose",37.29998293,-121.8499891,1281471.5,"United States of America","California"
"Panevezys",55.74002016,24.37002641,122400,"Lithuania","Panevezio"
"Manzanillo",19.04958662,-104.3230851,85236.5,"Mexico","Colima"
"Kathmandu",27.71669191,85.31664221,895000,"Nepal","Bhaktapur"
"Pittsfield",42.44819582,-73.25982833,45202,"United States of America","Massachusetts"
"Gar",32.20039756,79.98332434,5250,"China","Xizang"
"Eldoret",0.520005716,35.26998124,285913.5,"Kenya","Rift Valley"
"Wetaskiwin",52.96657188,-113.3832966,11562.5,"Canada","Alberta"
"Beni Mazar",28.49039146,30.80999508,68853,"Egypt","Al Minya"
"Harper",4.375377623,-7.716981447,25249,"Liberia","Maryland"
"Guadalajara",40.63370709,-3.166587363,51906.5,"Spain","Castilla-La Mancha"
"Matagami",49.75038576,-77.63328231,1574.5,"Canada","Québec"
"Fort Resolution",61.16658815,-113.682994,448,"Canada","Northwest Territories"
"Amasya",40.65368003,35.83304765,77700.5,"Turkey","Amasya"
"Central Coast",-33.42004148,151.3000048,3026,"Australia","New South Wales"
"Salisbury",35.67078005,-80.4744784,33907,"United States of America","North Carolina"
"Raichur",16.21036582,77.35500932,240601,"India","Karnataka"
"Allakaket",66.56548342,-152.6454995,97,"United States of America","Alaska"
"Seward",60.1261607,-149.4699827,2900,"United States of America","Alaska"
"Yaounde",3.866700662,11.51665076,1335793.5,"Cameroon","Centre"
"Nizhny Tagil",57.9200163,59.9749849,374343.5,"Russia","Sverdlovsk"
