"city","latitude","longitude","population","country","province"
"Xangongo",-16.74002602,14.96998002,447,"Angola","Cunene"
"Alenquer",-1.939585756,-54.78999964,26290,"Brazil","Pará"
"Sassandra",4.950381286,-6.083282716,30842.5,"Ivory Coast","Bas-Sassandra"
"Trenton",40.2169625,-74.74335535,225713,"United States of America","New Jersey"
"Buchanan",5.916084614,-10.05247197,37023,"Liberia","Grand Bassa"
"Coro",11.42001223,-69.67999516,184098,"Venezuela","Falcón"
"Korla",41.72999676,86.15002803,192919,"China","Xinjiang Uygur"
"Manokwari",-0.871123841,134.0692736,63847,"Indonesia","Irian Jaya Barat"
"Norfolk",36.84995872,-76.28000574,645336,"United States of America","Virginia"
"Luanda",-8.838286114,13.23442704,3562086,"Angola","Luanda"
"Gingin",-31.34957355,115.9000468,1446,"Australia","Western Australia"
"Ranong",9.962001095,98.63800257,24561,"Thailand","Ranong"
"Solola",14.77299598,-91.18299551,45373,"Guatemala","Sololá"
"Guasdualito",7.239983133,-70.73998214,28287.5,"Venezuela","Apure"
"Inukjuak",58.47000856,-78.13599064,1597,"Canada","Québec"
"Odessa",31.84556134,-102.3672248,98655,"United States of America","Texas"
"Nagercoil",8.180365009,77.42999182,219093.5,"India","Tamil Nadu"
"Walla Walla",46.06515851,-118.3418828,37864,"United States of America","Washington"
"Caracas",10.50099855,-66.91703719,2400339.5,"Venezuela","Distrito Capital"
"Hoonah",58.11540489,-135.438617,361,"United States of America","Alaska"
"Bani",18.279999,-70.33100347,66709,"Dominican Republic","Peravia"
"Tuktoyaktuk",69.45477459,-133.0492013,899.5,"Canada","Northwest Territories"
"Malayer",34.31998395,48.84997921,176573,"Iran","Hamadan"
"Narathiwat",6.431841246,101.8214229,57941.5,"Thailand","Narathiwat"
"Southampton",50.90003135,-1.399976849,384417,"United Kingdom","Southampton"
"Cuenca",-2.89999225,-78.99999475,281921,"Ecuador","Azuay"
"Shulan",44.40910972,126.9487264,78092,"China","Jilin"
"Al Khums",32.66042116,14.25999752,192502,"Libya","Al Marqab"
"Tolyatti",53.48039064,49.53004106,648622,"Russia","Samara"
"Mitzik",0.78371055,11.56662187,3998.5,"Gabon","Wouleu-Ntem"
"Aketi",2.740464497,23.7799849,46881,"Congo (Kinshasa)","Orientale"
"Narva",59.37762758,28.16028601,65707,"Estonia","Ida-Viru"
"Soro",55.43299811,11.5667016,7167,"Denmark","Sjaælland"
"Wenzhou",28.0199809,120.6500927,1607836,"China","Zhejiang"
"Stavanger",58.97000389,5.680004434,136999,"Norway","Rogaland"
"Parana",-31.73332273,-60.53334416,226852,"Argentina","Entre Ríos"
"Chimaltenango",14.66199914,-90.8199985,82370,"Guatemala","Chimaltenango"
"Cabo Frio",-22.88998655,-42.03997685,184980,"Brazil","Rio de Janeiro"
"Pecs",46.08042889,18.2200142,171455.5,"Hungary","Baranya"
"Sao Luiz Gonzaga",-28.41001137,-54.95998926,27798.5,"Brazil","Rio Grande do Sul"
"Awjilah",29.10802818,21.2869071,6610,"Libya","Ajdabiya"
"Nueve de Julio",-35.44596434,-60.88998906,26716,"Argentina","Ciudad de Buenos Aires"
"Pierre",44.36833701,-100.350552,13734.5,"United States of America","South Dakota"
"Bayankhongor",46.30000205,100.9833345,26252,"Mongolia","Bayanhongor"
"Aqtau",43.6231887,51.2365002,4479,"Kazakhstan","Mangghystau"
"Oyem",1.616631286,11.58331335,37146.5,"Gabon","Wouleu-Ntem"
"Salina Cruz",16.16706097,-95.19998784,77355.5,"Mexico","Oaxaca"
"Qingan",46.87185345,127.5118444,53206,"China","Heilongjiang"
"Ojinaga",29.54040489,-104.41002,19804.5,"Mexico","Chihuahua"
"Karbala",32.61492006,44.02448564,472571,"Iraq","Karbala'"
"Verona",45.44039044,10.99001623,300333.5,"Italy","Veneto"
"Teniente Jubany Station",-62.22414386,-58.65047599,40,"Antarctica",""
"Orillia",44.59997662,-79.41666183,33830.5,"Canada","Ontario"
"Stephenville",48.55040733,-58.56656498,6666,"Canada","Newfoundland and Labrador"
"Omdurman",15.61668113,32.48002234,2289428.5,"Sudan","Khartoum"
"Usulutan",13.3460011,-88.43200162,51910,"El Salvador","Usulután"
"Aigua",-34.19999388,-54.75000208,2622,"Uruguay","Maldonado"
"San Miguel de Tucuman",-26.81600014,-65.21662419,678803.5,"Argentina","Tucumán"
"Aksu",41.15000633,80.25002641,309704.5,"China","Xinjiang Uygur"
"Penza",53.18002138,44.99998165,491943,"Russia","Penza"
"Altay",47.86659894,88.11662634,140670.5,"China","Xinjiang Uygur"
"Gunnedah",-30.9870117,150.2622904,6204,"Australia","New South Wales"
"Kingoonya",-30.89957518,135.2999996,50,"Australia","South Australia"
"Pingliang",35.53037518,106.6800927,157706,"China","Gansu"
"Andkhvoy",36.93165916,65.10149369,50469,"Afghanistan","Faryab"
"Kasulu",-4.579579652,30.10001257,31218.5,"Tanzania","Kigoma"
"Talas",42.51837242,72.24291825,28646,"Kyrgyzstan","Talas"
"Newcastle Waters",-17.55279295,133.4672432,10,"Australia","Northern Territory"
"Fez",34.05459963,-5.000377239,983445.5,"Morocco","Fès - Boulemane"
"Magadan",59.57497988,150.8100089,91221.5,"Russia","Maga Buryatdan"
"Warrnambool",-38.37999713,142.4700012,29882,"Australia","Victoria"
"Tabora",-5.020017884,32.80000281,145893.5,"Tanzania","Tabora"
"Ravensthorpe",-33.58287392,120.0333345,639,"Australia","Western Australia"
"Onverwacht",5.599998125,-55.19999648,2105,"Suriname","Para"
"Omboue",-1.566223532,9.249967406,1667,"Gabon","Ogooué-Maritime"
"Kiboga",0.9161111,31.7741667,14512,"Uganda","Kiboga"
"Trincomalee",8.568999036,81.23300155,108420,"Sri Lanka","Trincomalee"
"Dover",51.13371218,1.300013386,32270,"United Kingdom","Kent"
"Hyderabad",17.39998313,78.47995357,4986908,"India","Andhra Pradesh"
"Chipata",-13.62956989,32.64001257,82455,"Zambia","Eastern"
"Wiarton",44.73368939,-81.13330123,2182,"Canada","Ontario"
"Edirne",41.67043968,26.56999548,114424,"Turkey","Edirne"
"Cape Town",-33.92001097,18.43498816,2823929,"South Africa","Western Cape"
"Georgetown",6.801973693,-58.16702865,249683.5,"Guyana","East Berbice-Corentyne"
"Marzuq",25.90439943,13.89722896,49401.5,"Libya","Murzuq"
"Quito",-0.214988181,-78.50005111,1550407,"Ecuador","Pichincha"
"Gualeguay",-33.15003213,-59.34000615,25913,"Argentina","Entre Ríos"
"Maebashi",36.39269981,139.0726892,313791,"Japan","Gunma"
"Vitoria",-20.32399331,-40.36599634,1008328,"Brazil","Espírito Santo"
"Sariwon",38.50700411,125.7620047,154942,"North Korea","Hwanghae-bukto"
"Chalatenango",14.07200406,-89.09399649,29271,"El Salvador","Chalatenango"
"Baghdad",33.3386485,44.39386877,5054000,"Iraq","Baghdad"
"Codo",-4.479585756,-43.8799679,83288,"Brazil","Maranhão"
"McMurdo Station",-77.73228239,166.8694157,600,"Antarctica",""
"Ganzhou",25.91997988,114.9500272,1216134.5,"China","Jiangxi"
"Yellowknife",62.44201418,-114.3969814,18658.5,"Canada","Northwest Territories"
"Eger",47.89500314,20.38300258,56647,"Hungary","Heves"
"Ado Ekiti",7.630372741,5.219980834,446749,"Nigeria","Ekiti"
"Grand Forks",47.92527753,-97.0324858,53496,"United States of America","North Dakota"
"Erldunda",-25.23330605,133.1999727,10,"Australia","Northern Territory"
