"city","latitude","longitude","population","country","province"
"Tirupati",13.65041872,79.41999955,268928,"India","Andhra Pradesh"
"Torshavn",62.03002382,-6.820033611,14398,"Faroe Islands","Eysturoyar"
"Kerman",30.29999676,57.08001949,556518,"Iran","Kerman"
"Chihuahua",28.64498151,-106.0849823,750633.5,"Mexico","Chihuahua"
"Bayghanin",48.69169069,55.87399491,4271,"Kazakhstan","Aqtöbe"
"Luiana",-17.36954832,22.99998083,150,"Angola","Cuando Cubango"
"Regina",50.45003298,-104.6170099,176183,"Canada","Saskatchewan"
"Kourou",5.159980895,-52.64994938,22425.5,"France","Guinaa"
"Qaqortoq",60.72890973,-46.03641168,3224,"Greenland","Kommune Kujalleq"
"Mallawi",27.73041201,30.83996741,179934.5,"Egypt","Al Minya"
"Karema",-6.816187318,30.43327388,14507.5,"Tanzania","Rukwa"
"Mednogorsk",51.41912111,57.57874874,27274,"Russia","Orenburg"
"Besancon",47.22999697,6.03000891,124193,"France","Franche-Comté"
"Braganca Paulista",-22.95003457,-46.5499858,126386,"Brazil","São Paulo"
"Garissa",-0.439625632,39.67002274,65948,"Kenya","North-Eastern"
"Lahti",60.99385968,25.66493445,97508,"Finland","Päijänne Tavastia"
"Ubaitaba",-14.30001992,-39.33001306,27411.5,"Brazil","Bahia"
"Nevelsk",46.68028892,141.8699344,16754.5,"Russia","Sakhalin"
"Kuqa",41.72774884,82.93637406,89802,"China","Xinjiang Uygur"
"Babahoyo",-1.7995943,-79.54001347,59873,"Ecuador","Los Rios"
"Cotonou",6.400008564,2.519990599,726292,"Benin","Ouémé"
"Peterborough",52.58041974,-0.249995363,140141,"United Kingdom","Peterborough"
"Dispur",26.14402305,91.76663611,16140,"India","Assam"
"Lamphun",18.50300114,99.07399856,14030,"Thailand","Lamphun"
"Bandar-e-Abbas",27.20405978,56.27213554,414503.5,"Iran","Hormozgan"
"Daejeon",36.33554567,127.425028,1458165,"South Korea","Daejeon"
"Santa Ana",13.9946096,-89.55976363,205569.5,"El Salvador","Santa Ana"
"Tucano",-10.96962889,-38.78999435,16199,"Brazil","Bahia"
"San Borja",-14.81962645,-66.84996118,19640,"Bolivia","El Beni"
"Stawell",-37.05961261,142.7600093,4596,"Australia","Victoria"
"Onslow",-21.65759354,115.0962959,573,"Australia","Western Australia"
"Texarkana",33.44210472,-94.03747481,52169,"United States of America","Arkansas"
"Mbaiki",3.870421365,17.99997595,43566,"Central African Republic","Lobaye"
"'s-Hertogenbosch",51.68333714,5.316660485,134520,"Netherlands","Noord-Brabant"
"Toktogul",41.88257143,72.93719112,22725.5,"Kyrgyzstan","Jalal-Abad"
"Mount Barker",-34.632784,117.6666056,1771.5,"Australia","Western Australia"
"Kumasi",6.689990864,-1.630014487,1468575.5,"Ghana","Ashanti"
"Biysk",52.53406598,85.18000972,209796.5,"Russia","Altay"
"Crateus",-5.165590394,-40.66600387,40338,"Brazil","Ceará"
"Kunming",25.06998008,102.6799751,1977337,"China","Yunnan"
"Cleburne",32.35152529,-97.39248967,32263,"United States of America","Texas"
"Scranton",41.40929283,-75.66267908,114701,"United States of America","Pennsylvania"
"Hegang",47.40001243,130.3700162,657833.5,"China","Heilongjiang"
"La Sarre",48.8000045,-79.20003422,6366.5,"Canada","Québec"
"Tyumen",57.14001223,65.52999467,460952,"Russia","Tyumen'"
"Medina",24.49998903,39.5800024,1010000,"Saudi Arabia","Al Madinah"
"Roskilde",55.64997398,12.08333451,42284.5,"Denmark","Sjaælland"
"Chanaral",-29.03002521,-71.43001754,13543,"Chile","Atacama"
"Ghardaia",32.48999229,3.669997923,125480,"Algeria","Ghardaïa"
"Burns Lake",54.21701235,-125.7665975,2633,"Canada","British Columbia"
"Porto-Novo",6.483310973,2.616625528,267084,"Benin","Ouémé"
"Shalqar",47.83629071,59.6140767,27256,"Kazakhstan","Aqtöbe"
"Madurai",9.920026264,78.12002722,1101954,"India","Tamil Nadu"
"Vallegrande",-18.48958331,-64.10999923,6857.5,"Bolivia","Santa Cruz"
"Andamooka",-30.43097329,137.1655704,528,"Australia","South Australia"
"Yen Bai",21.70500304,104.8750026,96540,"Vietnam","Yên Bái"
"Otsu",35.006402,135.8674068,437802.5,"Japan","Shiga"
"Kyzyl",51.70670046,94.38306555,106310.5,"Russia","Tuva"
"Longjiang",47.34040367,123.1800158,87115,"China","Heilongjiang"
"Malatya",38.37043439,38.30002885,451689.5,"Turkey","Malatya"
"Kota Baharu",6.119973978,102.2299768,392449.5,"Malaysia","Kelantan"
"Sincelejo",9.290426452,-75.37995732,239787.5,"Colombia","Sucre"
"Ornskoldsvik",63.31800722,18.71667639,26406,"Sweden","Västernorrland"
"Marv Dasht",29.80144838,52.82146806,124429,"Iran","Fars"
"Warsaw",52.25000063,20.99999955,1704569.5,"Poland","Masovian"
"Baguio City",16.42999066,120.5699426,360269,"Philippines","Benguet"
"Odessa",46.4900163,30.71000118,847500.5,"Ukraine","Odessa"
"Am Timan",11.03329165,20.28329911,29664,"Chad","Salamat"
"Yamagata",38.27049217,140.3200032,263373.5,"Japan","Yamagata"
"Harrisburg",40.27359987,-76.88474919,289210,"United States of America","Pennsylvania"
"Almenara",-16.17003497,-40.70000696,22173.5,"Brazil","Minas Gerais"
"Sotik",-0.679559307,35.12001623,36942.5,"Kenya","Rift Valley"
"Akita",39.70999086,140.0899914,300962.5,"Japan","Akita"
"Kuujjuaq",58.10000531,-68.39999577,1273,"Canada","Québec"
"Basoko",1.240426858,23.59002234,22953,"Congo (Kinshasa)","Orientale"
"Jonesboro",35.84257835,-90.70416406,58322,"United States of America","Arkansas"
"Kangirsuk",60.02482322,-69.99909713,549,"Canada","Québec"
"Nata",-20.20947833,26.19001868,2492.5,"Botswana","Central"
"Tikhoretsk",45.85310427,40.13774613,62368.5,"Russia","Krasnodar"
"Flagstaff",35.19809572,-111.6505083,60779.5,"United States of America","Arizona"
"Gwadar",25.13896812,62.32858801,37632.5,"Pakistan","Baluchistan"
"Maha Sarakham",16.18399803,103.2980045,51584,"Thailand","Maha Sarakham"
"Safi",32.31997683,-9.239989259,320819.5,"Morocco","Doukkala - Abda"
"Hakkari",37.57443646,43.7408337,42385,"Turkey","Hakkari"
"Sapouy",11.5544444,-1.7736111,3837,"Burkina Faso","Ziro"
"Tebingtinggi",3.33037681,99.13001094,192786.5,"Indonesia","Sumatera Utara"
"Jalapa",14.63300111,-89.98900162,45834,"Guatemala","Jalapa"
"Waingapu",-9.658236065,120.253011,35990.5,"Indonesia","Nusa Tenggara Timur"
"Villavicencio",4.153323994,-73.63499923,348240,"Colombia","Meta"
"Krasnokamsk",58.07473553,55.74428707,50382,"Russia","Perm'"
"Sikar",27.61039349,75.1400024,318789.5,"India","Rajasthan"
"Dubasari",47.2630556,29.1608333,23254,"Moldova","Transnistria"
"Bir Anzarane",23.88374758,-14.53330957,6597,"Morocco","Oued el Dahab"
"Topeka",39.05000531,-95.66998499,126830.5,"United States of America","Kansas"
"Meningie",-35.69954059,139.3333451,850,"Australia","South Australia"
"Pasadena",34.16038129,-118.1388719,144618,"United States of America","California"
"Jimani",18.49300212,-71.85099553,6567,"Dominican Republic","Independencia"
"Manisa",38.63039268,27.43996822,237700,"Turkey","Manisa"
"Ghadamis",30.13328859,9.500029662,6623,"Libya","Ghadamis"
"Ponca City",36.7073576,-97.08527328,24843,"United States of America","Oklahoma"
