"city","latitude","longitude","population","country","province"
"Monchegorsk",67.92912111,32.8287349,46934.5,"Russia","Murmansk"
"Huaraz",-9.530026836,-77.53000696,74986.5,"Peru","Ancash"
"Tunja",5.550448017,-73.37002832,139445.5,"Colombia","Boyacá"
"Parintins",-2.610035788,-56.74000981,64428,"Brazil","Amazonas"
"Truc Giang",10.234998,106.3749966,59442,"Vietnam","Bến Tre "
"Melilla",35.30000165,-2.950011435,107384,"Spain","Melilla"
"Mohales Hoek",-30.15899991,27.47999751,24992,"Lesotho","Mohale's Hoek"
"Joacaba",-27.17003538,-51.4999679,31196,"Brazil","Santa Catarina"
"Sao Francisco do Sul",-26.23960122,-48.59998987,24354.5,"Brazil","Santa Catarina"
"Santo Angelo",-28.30004393,-54.28003076,65013,"Brazil","Rio Grande do Sul"
"Capitan Pablo Lagerenza",-19.91611123,-60.78327722,1200,"Paraguay","Alto Paraguay"
"Puerto Baquerizo Moreno",-0.900010967,-89.5999679,5122,"Ecuador","Galápagos"
"Mbarara",-0.599615866,30.65000484,83700,"Uganda","Kashari"
"Santa Cruz Del Quiche",15.0333031,-91.13329763,23618,"Guatemala","Quiché"
"Sur",22.57581708,59.53480505,68738,"Oman","Ash Sharqiyah"
"Cap-Haitien",19.7592224,-72.21251602,208151,"Haiti","Nord"
"Jena",50.93044293,11.58000606,99941.5,"Germany","Thüringen"
"Las Heras",-32.82503904,-68.80167668,66663,"Argentina","Mendoza"
"Meymaneh",35.93022158,64.77009273,199795,"Afghanistan","Faryab"
"Niagara Falls",43.09482302,-79.0369434,117567,"United States of America","New York"
"Djado",21.01498212,12.30750688,10,"Niger","Agadez"
"Baie-Comeau",49.22266604,-68.15799504,8808,"Canada","Québec"
"San Luis",16.2000047,-89.4400035,69623,"Guatemala","Petén"
"Victoria Falls",-17.92961749,25.8400142,23964.5,"Zimbabwe","Matabeleland North"
"Phichit",16.43900405,100.3490017,35760,"Thailand","Phichit"
"Lubbock",33.58000327,-101.8799677,212343.5,"United States of America","Texas"
"Aberdeen",46.97489626,-123.8143911,24400,"United States of America","Washington"
"Tagum",7.382144998,125.8016646,6726,"Philippines","Davao del Norte"
"Ipatinga",-19.4796004,-42.51999923,318320,"Brazil","Minas Gerais"
"Cilacap",-7.718819561,109.0154024,1174964,"Indonesia","Jawa Tengah"
"Toguchin",55.23767356,84.37768144,20087,"Russia","Novosibirsk"
"Bradford",53.80003522,-1.749981325,397708.5,"United Kingdom","West Yorkshire"
"Richfield",38.77247703,-112.0832984,7308.5,"United States of America","Utah"
"Stavanger",58.97000389,5.680004434,136999,"Norway","Rogaland"
"Taoyuan",24.98888889,121.3111111,451007,"Taiwan","Taoyuan"
"Tehuacan",18.4503583,-97.37998397,239370.5,"Mexico","Puebla"
"Hagere Hiywet",8.980393696,37.85003048,39412.5,"Ethiopia","Addis Ababa"
"Seremban",2.710492166,101.9400203,336824,"Malaysia","Negeri Sembilan"
"Rzeszow",50.07046958,22.00004187,202034,"Poland","Subcarpathian"
"Schenectady",42.81458173,-73.93996769,104767.5,"United States of America","New York"
"Yilan",24.75,121.75,122915.5,"Taiwan","Yilan"
"Dedougou",12.455001,-3.464000439,45341,"Burkina Faso","Mou Houn"
"Kimba",-33.14961871,136.4333671,636,"Australia","South Australia"
"Oslo",59.91669029,10.74997921,707500,"Norway","Oslo"
"Am Timan",11.03329165,20.28329911,29664,"Chad","Salamat"
"Cat Lake",51.71703575,-91.79998865,277,"Canada","Ontario"
"Vienna",48.20001528,16.36663896,2065500,"Austria","Wien"
"Portland",-38.33999957,141.5900032,10324.5,"Australia","Victoria"
"Kuruman",-27.4495532,23.42000688,9549.5,"South Africa","Northern Cape"
"Yessey",68.48373842,102.1666215,10,"Russia","Evenk"
"Wiarton",44.73368939,-81.13330123,2182,"Canada","Ontario"
"Xinqing",48.23634381,129.5059346,42617.5,"China","Heilongjiang"
"Kapuskasing",49.4166852,-82.43332524,8732,"Canada","Ontario"
"Jiaxing",30.77040733,120.7499833,727050.5,"China","Zhejiang"
"Champasak",14.88330011,105.8667036,12994,"Laos","Champasak"
"Miskolc",48.10040896,20.78001298,210197,"Hungary","Borsod-Abaúj-Zemplén"
"Kashmar",35.18143007,58.45146033,126643,"Iran","Razavi Khorasan"
"Milwaukee",43.05265505,-87.91996708,983590,"United States of America","Wisconsin"
"Campoalegre",2.690002461,-75.33001205,17058.5,"Colombia","Huila"
"Bugrino",68.80787884,49.30416337,300,"Russia","Nenets"
"Semarang",-6.966617412,110.4200195,1342042,"Indonesia","Jawa Tengah"
"Portsmouth",50.80034751,-1.080022218,323676,"United Kingdom","Portsmouth"
"Shangrao",28.47039268,117.9699979,922421.5,"China","Jiangxi"
"Registro",-24.49004393,-47.83998458,49485,"Brazil","São Paulo"
"Al Ayn",24.2304706,55.73999792,352500.5,"United Arab Emirates","Abu Dhabi"
"Ragusa",36.93003135,14.72999467,67361,"Italy","Sicily"
"Artemisa",22.81339947,-82.76188399,46024.5,"Cuba","La Habana"
"Pointe-Noire",-4.770007305,11.88003943,602440.5,"Congo (Brazzaville)","Kouilou"
"Cuencame",24.8704057,-103.6999858,5416,"Mexico","Durango"
"Kampala",0.316658955,32.58332353,1386594.5,"Uganda","Kampala"
"Magdalena",-13.2600834,-64.05276758,3445,"Bolivia","El Beni"
"Baqubah",33.74764162,44.65726355,226014.5,"Iraq","Diyala"
"Pretoria",-25.70692055,28.22942908,1338000,"South Africa","Gauteng"
"Sokode",8.9904706,1.149996703,99725.5,"Togo","Centre"
"Belen",-27.64959267,-67.03328333,11359,"Argentina","Catamarca"
"Ntcheu",-14.8166667,34.6333333,10445,"Malawi","Ntcheu"
"Leninobod",39.75000301,69.00000365,11468,"Tajikistan","Leninabad"
"Rivera",-30.89957518,-55.56000431,132232.5,"Uruguay","Rivera"
"Orodara",10.97399705,-4.907996452,18632,"Burkina Faso","Kénédougou"
"Seres",41.08597923,23.54971472,50910.5,"Greece","Kentriki Makedonia"
"Jos",9.929973978,8.890041055,737068.5,"Nigeria","Plateau"
"Cumana",10.44999392,-64.18002079,287693,"Venezuela","Sucre"
"Prescott",34.59001914,-112.4477723,47587,"United States of America","Arizona"
"Yarmouth",43.83079447,-66.1125812,7433,"Canada","Nova Scotia"
"Morgantown",39.62981488,-79.95606043,43882.5,"United States of America","West Virginia"
"Arnhem",51.98799603,5.922999562,141674,"Netherlands","Gelderland"
"Puyo",-1.483002014,-77.98699756,24881,"Ecuador","Pastaza"
"Bizerte",37.29042279,9.854995075,127555.5,"Tunisia","Bizerte"
"Hebi",35.95037539,114.2200459,244662,"China","Henan"
"Shimanovsk",52.00244468,127.6974662,16574.5,"Russia","Amur"
"Lang Son",21.8459971,106.7570016,148000,"Vietnam","Lạng Sơn"
"Buy",58.48468467,41.52437984,25781.5,"Russia","Kostroma"
"Al Khalil",31.54059287,35.09557328,220395.5,"Palestine",""
"Dawmat al Jandal",29.81529767,39.86639319,22583,"Saudi Arabia","Al Jawf"
"Asmara",15.33333925,38.93332353,592366,"Eritrea","Anseba"
"Puerto la Cruz",10.16995933,-64.68001612,500464,"Venezuela","Anzoátegui"
"Ust Olensk",72.99778302,119.7729295,10,"Russia","Sakha (Yakutia)"
"Zharkent",44.16155377,79.9801204,35459,"Kazakhstan","Almaty"
"Khujayli",42.4047101,59.45165767,55200.5,"Uzbekistan","Karakalpakstan"
"Arak",25.2799931,3.749993041,423251,"Algeria","Tamanghasset"
