"city","latitude","longitude","population","country","province"
"Kracheh",12.46899612,106.0239967,19975,"Cambodia","Krâchéh"
"Al Qunfudhah",19.12636354,41.07887732,157,"Saudi Arabia","Makkah"
"Tuktoyaktuk",69.45477459,-133.0492013,899.5,"Canada","Northwest Territories"
"Naypyidaw",19.76655703,96.11861853,562412,"Myanmar","Mandalay"
"Bathurst",-33.41962807,149.5700329,6111,"Australia","New South Wales"
"Chimoio",-19.12003579,33.47003943,242538.5,"Mozambique","Manica"
"Kakonko",-3.279607321,30.96001176,16319,"Tanzania","Kigoma"
"Huambo",-12.74998533,15.76000932,986000,"Angola","Huambo"
"Farmington",36.75415061,-108.1860944,42917.5,"United States of America","New Mexico"
"Rashid",31.46039105,30.39002071,128970.5,"Egypt","Kafr ash Shaykh"
"Dispur",26.14402305,91.76663611,16140,"India","Assam"
"Kaesong",37.96399925,126.5644087,305333.5,"North Korea","Kaesong"
"Bugrino",68.80787884,49.30416337,300,"Russia","Nenets"
"Langzhong",31.57593955,105.9655627,60542,"China","Sichuan"
"Orange Walk",18.09043194,-88.5599797,18066.5,"Belize","Orange Walk"
"Burgas",42.51460004,27.47464311,174254,"Bulgaria","Burgas"
"Arnhem",51.98799603,5.922999562,141674,"Netherlands","Gelderland"
"Aral",46.79997154,61.66661291,30185,"Kazakhstan","Qyzylorda"
"Ghazni",33.56331179,68.41782873,129892.5,"Afghanistan","Ghazni"
"Chegdomyn",51.11779584,133.0241178,7485.5,"Russia","Khabarovsk"
"Upata",8.020426452,-62.40999964,53474.5,"Venezuela","Bolívar"
"Sheberghan",36.65798077,65.73830237,74441,"Afghanistan","Jawzjan"
"Austin",30.26694969,-97.74277836,919684,"United States of America","Texas"
"Ondjiva",-17.06961831,15.73003699,8748,"Angola","Cunene"
"Hualien",23.98374147,121.6000089,229563,"Taiwan","Hualien"
"Zamora",-4.069584942,-78.96999658,11581.5,"Ecuador","Zamora Chinchipe"
"Tupiza",-21.43958413,-65.72000431,25499.5,"Bolivia","Potosí"
"Norwich",52.63036501,1.300013386,184196,"United Kingdom","Norfolk"
"Peterborough",52.58041974,-0.249995363,140141,"United Kingdom","Peterborough"
"Winslow",35.28470542,-110.7006954,9931,"United States of America","Arizona"
"Yuci",37.68039899,112.7300077,537964.5,"China","Shanxi"
"Prudhoe Bay",70.29218101,-148.6693598,2337,"United States of America","Alaska"
"Damanhur",31.05044191,30.47001583,371350,"Egypt","Al Buhayrah"
"Maryborough",-25.54910073,152.7209,18920.5,"Australia","Queensland"
"Lahore",31.55997154,74.35002478,6443944,"Pakistan","Punjab"
"Machakos",-1.509534486,37.25998897,88448,"Kenya","Eastern"
"Dalton",34.76972394,-84.97030217,45077.5,"United States of America","Georgia"
"Guymon",36.68580853,-101.4795012,10843.5,"United States of America","Oklahoma"
"Nakhon Nayok",14.20000203,101.2159987,21309,"Thailand","Nakhon Nayok"
"Sialkote",32.5200163,74.5600378,477396,"Pakistan","Punjab"
"Comondante Luis Piedrabuena",-49.97454865,-68.90347273,410,"Argentina","Santa Cruz"
"Dawra",27.46290895,-12.99218917,10,"Morocco","Laâyoune - Boujdour - Sakia El Hamra"
"Sinop",42.02299802,35.1530015,34834,"Turkey","Sinop"
"Istanbul",41.10499615,29.01000159,10003305,"Turkey","Istanbul"
"Victoriaville",46.05040489,-71.96667729,37963,"Canada","Québec"
"Neftekamsk",56.08351341,54.26308549,122170,"Russia","Bashkortostan"
"Zhytomyr",50.24557517,28.66216752,278581,"Ukraine","Zhytomyr"
"Minas",-34.37000934,-55.23002446,39602.5,"Uruguay","Lavalleja"
"Guide",36.04509829,101.4241862,7642,"China","Gansu"
"Uummannaq",70.67502343,-52.12293443,1299,"Greenland",""
"Braganca",41.80799701,-6.755003426,34375,"Portugal","Bragança"
"Villa Angela",-27.58329181,-60.7166663,30051,"Argentina","Chaco"
"Nevers",46.98373293,3.166669473,44958.5,"France","Bourgogne"
"Brooks",50.56705426,-111.9000021,13453.5,"Canada","Alberta"
"Yozgat",39.81799809,34.81499749,87881,"Turkey","Yozgat"
"Constitucion",-35.32958901,-72.41998295,26902.5,"Chile","Maule"
"Bentiu",9.2333333,29.8333333,7653,"South Sudan","Unity"
"Mesa",33.42391461,-111.7360844,762217.5,"United States of America","Arizona"
"Qusmuryn",52.45799827,64.59997392,4345.5,"Kazakhstan","Qostanay"
"Liestal",47.48300112,7.737003468,12832,"Switzerland","Basel-Landschaft"
"Taichung",24.15207745,120.681667,1835024,"Taiwan","Taichung City"
"Sisaket",15.12025148,104.3298486,42856,"Thailand","Si Sa Ket"
"Anadyr",64.73699038,177.4749963,10332,"Russia","Chukchi Autonomous Okrug"
"Singida",-4.81961668,34.74003943,47749.5,"Tanzania","Singida"
"Bocaiuva",-17.10961587,-43.81004968,22528.5,"Brazil","Minas Gerais"
"Craiova",44.3262724,23.82587357,301143.5,"Romania","Dolj"
"Bento Goncalves",-29.1694999,-51.51996668,92561.5,"Brazil","Rio Grande do Sul"
"Yunxian",32.80816408,110.8136389,133558,"China","Hubei"
"Hyderabad",25.379987,68.37498897,1422665,"Pakistan","Sind"
"Bastia",42.70316734,9.450006875,40558.5,"France","Corse"
"Lufkin",31.33843467,-94.72887964,38465.5,"United States of America","Texas"
"Tejen",37.37860862,60.49603837,62649.5,"Turkmenistan","Ahal"
"Devils Lake",48.11221702,-98.85968693,7312,"United States of America","North Dakota"
"Wichita Falls",33.91362632,-98.49306848,97429,"United States of America","Texas"
"Taungoo",18.94828656,96.41792843,105590.5,"Myanmar","Bago"
"Sorocaba",-23.49000161,-47.46998132,561071.5,"Brazil","São Paulo"
"Amiens",49.90037661,2.300004027,118908.5,"France","Picardie"
"Rio Verde",21.92999086,-99.98000615,59233.5,"Mexico","San Luis Potosí"
"Akureyi",65.66657188,-18.10001693,14754,"Iceland","Akureyri"
"Novozybkov",52.53481529,31.9448612,43052.5,"Russia","Bryansk"
"Dawson",64.0666437,-139.4166687,1319,"Canada","Yukon"
"Gemena",3.260019347,19.76999711,157847.5,"Congo (Kinshasa)","Équateur"
"Sousse",35.82999514,10.62502559,245563.5,"Tunisia","Sousse"
"Puri",19.82042971,85.90001746,201026,"India","Orissa"
"Salatiga",-7.309542217,110.4900927,174322.5,"Indonesia","Jawa Tengah"
"Suez",30.00497601,32.54994055,498230,"Egypt","As Suways"
"Mojokerto",-7.469584128,112.4299743,112557,"Indonesia","Jawa Timur"
"San Borja",-14.81962645,-66.84996118,19640,"Bolivia","El Beni"
"Osh",40.54040529,72.79001664,295638.5,"Kyrgyzstan","Osh"
"Crateus",-5.165590394,-40.66600387,40338,"Brazil","Ceará"
"Hoonah",58.11540489,-135.438617,361,"United States of America","Alaska"
"Mbalmayo",3.520391051,11.50001094,53501.5,"Cameroon","Centre"
"Vatican City",41.90001223,12.44780839,832,"Vatican (Holy Sea)","Lazio"
"Mwingi",-0.929569886,38.07001705,9546.5,"Kenya","Eastern"
"Erechim",-27.63000731,-52.26999841,85365.5,"Brazil","Rio Grande do Sul"
"Darwin",-12.42535398,130.8500386,82973,"Australia","Northern Territory"
"Lynchburg",37.4136194,-79.14246668,84581,"United States of America","Virginia"
"Vernon",34.15105369,-99.29038416,11574.5,"United States of America","Texas"
"Vologda",59.20998924,39.91998165,251692,"Russia","Vologda"
"Villazon",-22.07959674,-65.5999858,33734,"Bolivia","Potosí"
