"city","latitude","longitude","population","country","province"
"Saint John",45.26704185,-66.07667505,71153,"Canada","New Brunswick"
"Surat",21.19998374,72.84003943,3368252,"India","Dadra and Nagar Haveli"
"Jalingo",8.900372741,11.36001949,103773,"Nigeria","Taraba"
"Matola",-25.96959186,32.46002356,503368,"Mozambique","Maputo"
"Tadjoura",11.78330399,42.9000035,22193,"Djibouti","Tadjourah"
"Zhubei",24.83333333,121.0119444,174003,"Taiwan","Hsinchu"
"Fort Wayne",41.08039817,-85.12998234,264793,"United States of America","Indiana"
"Punto Fijo",11.71999392,-70.21001449,183260,"Venezuela","Falcón"
"Kokkola",63.83329877,23.11666622,46714,"Finland","Western Finland"
"Montevideo",-34.85804157,-56.17105229,759162,"Uruguay","Montevideo"
"Warri",5.519958922,5.759999551,683064.5,"Nigeria","Delta"
"Muncie",40.19375979,-85.38637496,75388,"United States of America","Indiana"
"Ternopil",49.53598024,25.5821488,240222,"Ukraine","Ternopil'"
"Makiyivka",48.02966392,37.97462235,318882.5,"Ukraine","Donets'k"
"Al Mukalla",14.54116538,49.12593135,194080.5,"Yemen","Hadramawt"
"Savanna La Mar",18.1639981,-77.94800051,25260.5,"Jamaica","Westmoreland"
"Putina",-15.47002602,-69.42998458,8118,"Peru","Callao"
"Kitgum",3.300404479,32.87002437,32785.5,"Uganda","Kitgum"
"Frolovo",49.77219322,43.65179521,40096.5,"Russia","Volgograd"
"Malmo",55.58333722,13.03330237,265448.5,"Sweden","Skåne"
"Hirosaki",40.56999005,140.4700199,171700.5,"Japan","Aomori"
"Kampala",0.316658955,32.58332353,1386594.5,"Uganda","Kampala"
"Hailun",47.45042279,126.9300195,104848.5,"China","Heilongjiang"
"Nyiregyhaza",47.96532676,21.71871537,146589,"Hungary","Szabolcs-Szatmár-Bereg"
"Manica",-18.96960569,32.87999792,3713.5,"Mozambique","Manica"
"Galesburg",40.94777061,-90.37108362,32078.5,"United States of America","Illinois"
"Nzega",-4.209628073,33.18003129,18325,"Tanzania","Tabora"
"Balancan",17.79995872,-91.52997929,7666.5,"Mexico","Tabasco"
"Leon",42.57997072,-5.570006553,135014,"Spain","Castilla y León"
"Gyangze",28.95000165,89.63332963,10000,"China","Xizang"
"Taltal",-25.40001422,-70.47002446,8947.5,"Chile","Antofagasta"
"Balqash",46.8532241,74.95024654,80586,"Kazakhstan","Qaraghandy"
"La Union",-40.28995807,-73.0899679,22843,"Chile","Los Ríos"
"Coro",11.42001223,-69.67999516,184098,"Venezuela","Falcón"
"Voznesensk",47.55036501,31.33332231,43122,"Ukraine","Mykolayiv"
"Salluit",62.18259849,-75.65950098,106,"Canada","Québec"
"Yirga Alem",6.750426452,38.4099963,36292,"Ethiopia","Southern Nations, Nationalities and Peoples"
"Miass",54.99541445,60.0949259,148834.5,"Russia","Chelyabinsk"
"Qaqortoq",60.72890973,-46.03641168,3224,"Greenland","Kommune Kujalleq"
"Laascaanood",8.43329714,47.31669964,60100,"Somaliland",""
"Turgay",49.62600011,63.49899651,5277,"Kazakhstan","Qostanay"
"Hokitika",-42.72568188,170.9681006,2139,"New Zealand","West Coast"
"Chegga",25.38040041,-5.779967897,10,"Mauritania","Tiris Zemmour"
"Sisimiut",66.95000775,-53.66660567,5227,"Greenland","Qeqqata Kommunia"
"Maanshan",31.73040041,118.4800443,1000121,"China","Anhui"
"Magong",23.56666667,119.5833333,56435,"Taiwan","Penghu"
"Yeysk",46.69878908,38.26339026,76591.5,"Russia","Krasnodar"
"Maceio",-9.619995505,-35.72997441,1000215.5,"Brazil","Alagoas"
"Yurga",55.72575747,84.88540238,72495.5,"Russia","Kemerovo"
"Tynda",55.17426658,124.7075712,33187,"Russia","Amur"
"Villa O'Higgins",-48.46790851,-72.55997441,175,"Chile","Santa Cruz"
"Batemans Bay",-35.68961871,150.2073067,5604,"Australia","New South Wales"
"Tobolsk",58.1997925,68.26481482,87877.5,"Russia","Tyumen'"
"Kaohsiung",22.63330711,120.2666019,2144391.5,"Taiwan","Kaohsiung City"
"Rio Bueno",-40.34003253,-72.96002751,13059.5,"Chile","Los Ríos"
"Tukuyu",-9.249578838,33.64000321,77984,"Tanzania","Mbeya"
"Irece",-11.29999632,-41.87001306,48079.5,"Brazil","Bahia"
"Washington, D.C.",38.89954938,-77.00941858,2445216.5,"United States of America","District of Columbia"
"Des Moines",41.57998008,-93.61998092,286917.5,"United States of America","Iowa"
"Onslow",-21.65759354,115.0962959,573,"Australia","Western Australia"
"Salvador",-12.9699719,-38.47998743,3081422.5,"Brazil","Bahia"
"San Felipe",10.33599598,-68.74599552,76766,"Venezuela","Yaracuy"
"Lida",53.88847943,25.28464758,99126,"Belarus","Hrodna"
"Mymensingh",24.75041302,90.3800024,330126,"Bangladesh","Dhaka"
"Ghazni",33.56331179,68.41782873,129892.5,"Afghanistan","Ghazni"
"Ingeniero Guillermo N. Juarez",-23.90000242,-61.84998214,6453,"Argentina","Formosa"
"Kailua-Kona",19.6405556,-155.9955556,9870,"United States of America","Hawaii"
"Andorra",42.50000144,1.516485961,38127,"Andorra",""
"Taza",34.22037762,-4.019971966,170761.5,"Morocco","Taza - Al Hoceima - Taounate"
"Keetmanshoop",-26.57389606,18.12999385,16823.5,"Namibia","Karas"
"Fada Ngourma",12.05499605,0.360999451,33910,"Burkina Faso","Gourma"
"Columbia",35.61499534,-87.03526656,74866,"United States of America","Tennessee"
"Caboolture",-27.08296059,152.9499816,26495.5,"Australia","Queensland"
"Majene",-3.533596986,118.9660095,155046,"Indonesia","Sulawesi Barat"
"Tombstone",31.71314048,-110.066884,1396.5,"United States of America","Arizona"
"Melekeok",7.487396173,134.6265485,7026,"Palau",""
"Troitsk",54.10564964,61.57023637,69919,"Russia","Chelyabinsk"
"Buenaventura",3.872402425,-77.05045329,246596,"Colombia","Valle del Cauca"
"Gingin",-31.34957355,115.9000468,1446,"Australia","Western Australia"
"Cordoba",18.92038129,-96.91998621,177483,"Mexico","Veracruz"
"Rahimyar Khan",28.4202407,70.29518184,353203,"Pakistan","Punjab"
"La Asuncion",11.03333403,-63.8833315,35084,"Venezuela","Nueva Esparta"
"Uyo",5.007996056,7.849998524,495756,"Nigeria","Akwa Ibom"
"Sao Luiz Gonzaga",-28.41001137,-54.95998926,27798.5,"Brazil","Rio Grande do Sul"
"Haapsalu",58.9430556,23.5413889,11805,"Estonia","Lääne"
"Kindu",-2.963915996,25.90998409,199306,"Congo (Kinshasa)","Maniema"
"Chusovoy",58.2934302,57.81304968,61159,"Russia","Perm'"
"Katakwi",1.8911111,33.9661111,8400,"Uganda","Usuk"
"Cork",51.89860089,-8.49577112,162852,"Ireland","Cork"
"Haarlem",52.38043194,4.629991006,248773.5,"Netherlands","Noord-Holland"
"Qurghonteppa",37.83731447,68.77134721,188287,"Tajikistan","Khatlon"
"Lubeck",53.87039268,10.66998409,223798.5,"Germany","Schleswig-Holstein"
"Spartanburg",34.94942873,-81.93227055,81059,"United States of America","South Carolina"
"Padangsidempuan",1.388738219,99.27336137,183721.5,"Indonesia","Sumatera Utara"
"Ozamis",8.146206888,123.8444197,95444,"Philippines","Misamis Occidental"
"Ragusa",36.93003135,14.72999467,67361,"Italy","Sicily"
"Sault Ste. Marie",46.49526145,-84.34527572,50173.5,"United States of America","Michigan"
"Corvallis",44.57235557,-123.2799793,54865.5,"United States of America","Oregon"
"Marsala",37.80540428,12.43866166,60481.5,"Italy","Sicily"
"Virginia Beach",36.85321433,-75.97831873,877475.5,"United States of America","Virginia"
