"city","latitude","longitude","population","country","province"
"Chernogorsk",53.8313253,91.22268998,39815.5,"Russia","Khakass"
"Changde",29.02999676,111.6800459,993390,"China","Hunan"
"Teyateyaneng",-29.15299794,27.75300351,5115,"Lesotho","Berea"
"Sangar",63.92414593,127.4739139,4633,"Russia","Sakha (Yakutia)"
"Itauna",-20.06003009,-44.57002914,70233,"Brazil","Minas Gerais"
"Keelung",25.13325787,121.7332824,443603.5,"Taiwan","Keelung City"
"Kisangani",0.520005716,25.22000036,558814,"Congo (Kinshasa)","Orientale"
"Ocana",8.240413024,-73.3500037,83401.5,"Colombia","Norte de Santander"
"Nizhneyansk",71.43332583,136.0666194,395.5,"Russia","Sakha (Yakutia)"
"Marseille",43.28997906,5.37501013,1097405.5,"France","Provence-Alpes-Côte-d'Azur"
"Qena",26.15045677,32.72000769,268694.5,"Egypt","Qina"
"Canton",40.79886497,-81.37863509,168410,"United States of America","Ohio"
"Imphal",24.79997072,93.95001705,244254.5,"India","Manipur"
"Kiel",54.33039044,10.13001705,251092.5,"Germany","Schleswig-Holstein"
"Lafia",8.490423603,8.5200378,79470.5,"Nigeria","Nassarawa"
"Entebbe",0.060395527,32.46002356,127414,"Uganda","Wakiso"
"Pimenta Bueno",-11.64002724,-61.20999536,25762,"Brazil","Rondônia"
"Tarapoto",-6.50995278,-76.47996769,936,"Peru","San Martín"
"Minna",9.619992898,6.550028848,249038,"Nigeria","Niger"
"Crato",-7.46389972,-63.03996118,164149.5,"Brazil","Amazonas"
"Krasnoyarsk",56.01398277,92.86600053,613605,"Russia","Krasnoyarsk"
"Bremerhaven",53.55043805,8.579982461,127598.5,"Germany","Bremen"
"Shannon",52.7038489,-8.864146567,8143.5,"Ireland","Clare"
"Harare",-17.81778969,31.04470943,1557406.5,"Zimbabwe","Harare"
"Cottbus",51.7704175,14.32996741,94910.5,"Germany","Brandenburg"
"Logrono",42.47036501,-2.429991497,123918.5,"Spain","La Rioja"
"Kwinana",-32.23939004,115.7702356,18817.5,"Australia","Western Australia"
"Jaque",7.518958353,-78.16601465,955,"Panama","Darién"
"Morioka",39.72001609,141.1300313,294782.5,"Japan","Iwate"
"Jiaohe",43.71628379,127.3459631,90420,"China","Jilin"
"Valle de la Pascua",9.209992085,-66.019986,86273.5,"Venezuela","Guárico"
"Mercedes",-34.66001748,-59.44002588,48408.5,"Argentina","Ciudad de Buenos Aires"
"Porto Seguro",-16.42960569,-39.08002832,72031,"Brazil","Bahia"
"Kipushi",-11.75960651,27.25000565,87839.5,"Congo (Kinshasa)","Katanga"
"Eumseong",36.93525067,127.6897147,10077,"South Korea","Chungcheongbuk-do"
"Ed Damazin",11.77040428,34.34998572,114030,"Sudan","Blue Nile"
"Tegal",-6.869569073,109.1199955,237084,"Indonesia","Jawa Tengah"
"Gyor",47.70035585,17.63002437,132173,"Hungary","Gyor-Moson-Sopron"
"Juanjui",-7.169602438,-76.73997766,27352.5,"Peru","San Martín"
"Morgantown",39.62981488,-79.95606043,43882.5,"United States of America","West Virginia"
"Otuzco",-7.899997133,-78.56999516,8754.5,"Peru","La Libertad"
"Loei",17.49188967,101.7315059,29908,"Thailand","Loei"
"Asbest",57.02304262,61.45804683,77915.5,"Russia","Sverdlovsk"
"Serowe",-22.39001707,26.71003861,47996,"Botswana","Central"
"Maxixe",-23.86602274,35.38855095,112881.5,"Mozambique","Inhambane"
"Kangar",6.433001991,100.1899987,63869,"Malaysia","Perlis"
"Okara",30.81040489,73.45002803,223648,"Pakistan","Punjab"
"Zhosaly",45.48772605,64.07804195,19023.5,"Kazakhstan","Qyzylorda"
"Nola",3.533697732,16.06660559,25301,"Central African Republic","Sangha-Mbaéré"
"Leiria",39.73899603,-8.804996462,45112,"Portugal","Leiria"
"Tokmak",42.82987795,75.28459306,87953.5,"Kyrgyzstan","Bishkek"
"Bezhetsk",57.76472862,36.68999792,31425,"Russia","Tver'"
"Sambava",-14.26617186,50.16659135,37493.5,"Madagascar","Antsiranana"
"Tiarat",35.38043601,1.319960489,184195,"Algeria","Tiaret"
"Shieli",44.16700563,66.75002356,25871,"Kazakhstan","Qyzylorda"
"Caluula",11.96695559,50.75001827,513,"Somalia","Bari"
"At Bashy",41.17248557,75.79680985,15413.5,"Kyrgyzstan","Naryn"
"Oruro",-17.97995034,-67.12999577,227592.5,"Bolivia","Oruro"
"Moquegua",-17.18997272,-70.93999577,38610,"Peru","Moquegua"
"Enid",36.39554201,-97.8780931,45963.5,"United States of America","Oklahoma"
"Valencia",10.22998151,-67.9800214,1569526.5,"Venezuela","Carabobo"
"Jaboatao",-8.110010153,-35.02004358,681214,"Brazil","Pernambuco"
"Cabo Frio",-22.88998655,-42.03997685,184980,"Brazil","Rio de Janeiro"
"Mardan",34.20004295,72.0399849,300424,"Pakistan","N.W.F.P."
"Inverness",57.46712404,-4.23326644,42956.5,"United Kingdom","Highland"
"Augusta",44.31056276,-69.77998906,21301,"United States of America","Maine"
"Yelimane",15.13371319,-10.56662663,988,"Mali","Kayes"
"Bamenda",5.959983743,10.15001583,419567,"Cameroon","Nord-Ouest"
"Novotroitsk",51.20001304,58.33002071,90278.5,"Russia","Orenburg"
"Samarra",34.19399705,43.87500062,158508,"Iraq","Sala ad-Din"
"Zakho",37.14454022,42.68720292,114957.5,"Iraq","Dihok"
"Erfurt",50.97005292,11.02996212,189365,"Germany","Thüringen"
"Dehra Dun",30.32040895,78.05000565,646321.5,"India","Uttaranchal"
"Kumasi",6.689990864,-1.630014487,1468575.5,"Ghana","Ashanti"
"Aginskoye",51.10306805,114.5228182,11491,"Russia","Aga Buryat"
"La Cruz",23.92041201,-106.900023,11527.5,"Mexico","Sinaloa"
"Obluchye",48.99999229,131.083306,9689.5,"Russia","Yevrey"
"Gbarnga",7.010410582,-9.489999839,31856.5,"Liberia","Bong"
"Koblenz",50.35047833,7.599990599,209976,"Germany","Rheinland-Pfalz"
"Zhubei",24.83333333,121.0119444,174003,"Taiwan","Hsinchu"
"Focsani",45.69655052,27.186547,92636.5,"Romania","Vrancea"
"Belleville",44.16666974,-77.38334924,43990,"Canada","Ontario"
"Dhangarhi",28.69499706,80.5930026,92294,"Nepal","Achham"
"Honolulu",21.30687644,-157.8579979,578828.5,"United States of America","Hawaii"
"Hechi",23.09653465,109.6091129,3275189.5,"China","Guangxi"
"Simferopol",44.94915428,34.0987349,305882.5,"Ukraine","Crimea"
"Sorong",-0.855414206,131.2849991,125535,"Indonesia","Irian Jaya Barat"
"Florence",34.19567629,-79.76279057,43977.5,"United States of America","South Carolina"
"Blagodarnyy",45.10472618,43.43439245,28070.5,"Russia","Stavropol'"
"Victoria",28.80499758,-97.00334029,63126.5,"United States of America","Texas"
"Narva",59.37762758,28.16028601,65707,"Estonia","Ida-Viru"
"Tuy Hoa",13.08200402,109.3159987,69596,"Vietnam","Phú Yên"
"Johor Bahru",1.480024637,103.7300402,838744.5,"Malaysia","Johor"
"Chongqing",29.56497703,106.5949816,5214014,"China","Chongqing"
"Yakeshi",49.28041445,120.7300362,107047,"China","Nei Mongol"
"Kangerlussuaq",67.01412249,-50.70990925,556,"Greenland","Qeqqata Kommunia"
"Sonbong",42.33768577,130.4027274,44097.5,"North Korea","Hamgyong-bukto"
"Moree",-29.469895,149.8300687,8062,"Australia","New South Wales"
"Topeka",39.05000531,-95.66998499,126830.5,"United States of America","Kansas"
"St. Anthony",51.3837486,-55.5999502,224,"Canada","Newfoundland and Labrador"
