"city","latitude","longitude","population","country","province"
"Celaya",20.53002464,-100.8000078,344799,"Mexico","Guanajuato"
"Qasr Farafra",27.067145,27.96655106,5000,"Egypt","Al Wadi at Jadid"
"La Paz",14.31999903,-87.68400257,17555,"Honduras","La Paz"
"Columbia",34.0399752,-80.89998214,257185.5,"United States of America","South Carolina"
"Baykonur",45.69135703,63.24134884,36175,"Kazakhstan","Qyzylorda"
"Allentown",40.59998822,-75.50002751,300980.5,"United States of America","Pennsylvania"
"Montepuez",-13.11957518,39.0000378,49041,"Mozambique","Cabo Delgado"
"Big Delta",64.15252993,-145.8421939,591,"United States of America","Alaska"
"Tarawa",1.338187506,173.0175708,25668,"Kiribati",""
"Scottsdale",33.69234784,-111.8680402,15401,"United States of America","Arizona"
"Misratah",32.37997316,15.09999792,301160,"Libya","Misratah"
"Patna",25.62495913,85.13003861,1878960,"India","Bihar"
"Lawton",34.59903668,-98.40997278,85795.5,"United States of America","Oklahoma"
"Jalapa",14.63300111,-89.98900162,45834,"Guatemala","Jalapa"
"Mangalore",12.90002525,74.84999426,597009.5,"India","Karnataka"
"Trento",46.08042889,11.11998246,106377,"Italy","Trentino-Alto Adige"
"Belfast",54.60001223,-5.960034425,362588,"United Kingdom","Belfast"
"Darwin",-12.42535398,130.8500386,82973,"Australia","Northern Territory"
"Broome",-17.96177069,122.2307681,11890.5,"Australia","Western Australia"
"Cherkessk",44.29040895,42.06000606,101153,"Russia","Karachay-Cherkess"
"Ivdel",60.69364545,60.41325273,11466.5,"Russia","Sverdlovsk"
"Tiruvannamalai",12.26037437,79.09996741,138243,"India","Tamil Nadu"
"Dedougou",12.455001,-3.464000439,45341,"Burkina Faso","Mou Houn"
"Watertown",43.97515688,-75.91106185,30938,"United States of America","New York"
"Faranah",10.04040651,-10.75000045,14409.5,"Guinea","Faranah"
"Bartlesville",36.74720013,-95.98058618,24935,"United States of America","Oklahoma"
"Varna",43.21564252,27.89528926,245522,"Bulgaria","Varna"
"Ciudad Madero",22.31890769,-97.836106,165411.5,"Mexico","Tamaulipas"
"Djelfa",34.67998781,3.250023558,170901,"Algeria","Djelfa"
"Arys",42.43687868,68.80483354,39466.5,"Kazakhstan","South Kazakhstan"
"Lac La Biche",54.77193972,-111.964701,2952.5,"Canada","Alberta"
"Pinheiro",-2.519602032,-45.0899974,24912,"Brazil","Maranhão"
"Brikama",13.28036379,-16.65994979,136418,"The Gambia","Banjul"
"Boulder City",35.97895245,-114.8315802,15072.5,"United States of America","Nevada"
"Bukoba",-1.319623597,31.79996049,85566,"Tanzania","Kagera"
"San Juan Bautista",-26.67998777,-57.15001062,7882,"Paraguay","Misiones"
"Delicias",28.19996991,-105.4999793,108876,"Mexico","Chihuahua"
"Prokopyevsk",53.89997744,86.70999385,242547,"Russia","Kemerovo"
"Kuqa",41.72774884,82.93637406,89802,"China","Xinjiang Uygur"
"Hiroshima",34.3878351,132.442913,1594420.5,"Japan","Hiroshima"
"Ourinhos",-22.97003335,-49.86998987,96994,"Brazil","São Paulo"
"Coro",11.42001223,-69.67999516,184098,"Venezuela","Falcón"
"Olenek",68.52500205,112.4500248,10,"Russia","Sakha (Yakutia)"
"Szeged",46.25039268,20.15002559,176324,"Hungary","Csongrád"
"Starsy Oskol",51.30042035,37.83995357,200131,"Russia","Belgorod"
"Beaufort West",-32.34961587,22.56998124,28070.5,"South Africa","Western Cape"
"Cotonou",6.400008564,2.519990599,726292,"Benin","Ouémé"
"Bukachacha",52.98334088,116.9166255,1934.5,"Russia","Chita"
"Benxi",41.33038291,123.7500069,923933,"China","Liaoning"
"Tumut",-35.30959023,148.2200378,4873,"Australia","New South Wales"
"Paragominas",-2.959575176,-47.49000594,38095.5,"Brazil","Pará"
"Mansa Konko",13.3773121,-15.67856644,18672,"The Gambia","Lower River"
"El Kef",36.18263511,8.714754597,42303.5,"Tunisia","Le Kef"
"Kalamata",37.03891359,22.11419511,61465.5,"Greece","Peloponnisos"
"Kentau",43.5165027,68.51988969,55864.5,"Kazakhstan","South Kazakhstan"
"Sokolo",14.73373761,-6.133305503,4251,"Mali","Ségou"
"Labasa",-16.41658323,179.3833036,24187,"Fiji","Western"
"Menongue",-14.66661253,17.69999426,13030,"Angola","Cuando Cubango"
"Turbat",25.99178428,63.07179846,111742.5,"Pakistan","Baluchistan"
"Providence",41.82110231,-71.4149797,663726.5,"United States of America","Rhode Island"
"Marib",15.42099607,45.33399954,16794,"Yemen","Ma'rib"
"Mainz",49.98247246,8.273219156,184997,"Germany","Rheinland-Pfalz"
"Capitan Pablo Lagerenza",-19.91611123,-60.78327722,1200,"Paraguay","Alto Paraguay"
"Combarbala",-31.18002317,-70.99999211,5134,"Chile","Coquimbo"
"Dhamar",14.5574693,44.3874609,191259,"Yemen","Dhamar"
"Boende",-0.219587383,20.8600081,24679.5,"Congo (Kinshasa)","Équateur"
"Akita",39.70999086,140.0899914,300962.5,"Japan","Akita"
"Yalta",44.49931093,34.15940303,76814.5,"Ukraine","Crimea"
"Saint-Georges",46.117145,-70.66665328,26149,"Canada","Québec"
"Fort-Liberte",19.66556703,-71.84483954,11465,"Haiti","Nord-Est"
"Vegreville",53.49997601,-112.0499671,5745.5,"Canada","Alberta"
"Ouargla",31.96997235,5.340025186,176271,"Algeria","Ouargla"
"Ely",47.90042116,-91.82569767,3687,"United States of America","Minnesota"
"Tshabong",-26.00948606,22.40001745,9679,"Botswana","Kgalagadi"
"Machala",-3.260021953,-79.95998784,205578.5,"Ecuador","El Oro"
"Al Fallujah",33.34766604,43.77726558,210989,"Iraq","Al-Anbar"
"Cananea",30.99041974,-110.3000481,28625.5,"Mexico","Sonora"
"Stockton",37.95813397,-121.289739,488506.5,"United States of America","California"
"Vichy",46.117145,3.416680052,35088.5,"France","Auvergne"
"Jonesboro",35.84257835,-90.70416406,58322,"United States of America","Arkansas"
"Linz",48.31923281,14.28878129,265161.5,"Austria","Oberösterreich"
"Kamyshin",50.08039146,45.40000891,82613,"Russia","Volgograd"
"San Luis",-33.29999713,-66.35001754,308146,"Argentina","San Luis"
"Katima Mulilo",-17.4996179,24.26000728,21748.5,"Namibia","Caprivi"
"Urubamba",-13.30421507,-72.11661646,5985,"Peru","Cusco"
"Gashua",12.87049217,11.03998734,74825.5,"Nigeria","Yobe"
"Turpan",42.93537539,89.1650378,178863.5,"China","Xinjiang Uygur"
"Casma",-9.440006491,-78.20999129,27421,"Peru","Ancash"
"Managua",12.15301658,-86.26849166,920000,"Nicaragua","Managua"
"Kirovsk",67.60908897,33.66873531,22949,"Russia","Murmansk"
"Maanshan",31.73040041,118.4800443,1000121,"China","Anhui"
"Worcester",-33.64002806,19.43993974,109200,"South Africa","Western Cape"
"Dyatkovo",53.5891437,34.33918534,33363.5,"Russia","Bryansk"
"Dzaoudzi",-12.78708901,45.27500362,23099,"France","Moyotte"
"Qaanaaq",77.48347333,-69.33223861,437,"Greenland","Qaasuitsup Kommunia"
"Turin",45.07038719,7.669960489,1258631.5,"Italy","Piemonte"
"Concord",43.20807192,-71.53804712,42646.5,"United States of America","New Hampshire"
"Lupanshui",26.59443483,104.8333321,886256,"China","Guizhou"
"Pedro Luro",-39.48334064,-62.68331629,7100,"Argentina","Ciudad de Buenos Aires"
"Matagalpa",12.91707847,-85.91665267,106514.5,"Nicaragua","Matagalpa"
