"city","latitude","longitude","population","country","province"
"Georgetown",6.801973693,-58.16702865,249683.5,"Guyana","East Berbice-Corentyne"
"Nyahanga",-2.382917868,33.55003454,16092,"Tanzania","Mwanza"
"Sarajevo",43.8500224,18.38300167,662816.5,"Bosnia and Herzegovina","Sarajevo"
"Salekhard",66.53502016,66.60998043,32427,"Russia","Yamal-Nenets"
"Bodo",67.24677227,14.39901132,31383.5,"Norway","Nordland"
"Puerto Carreno",6.185034606,-67.49302271,8038.5,"Colombia","Vichada"
"Changsha",28.19996991,112.969993,2338969,"China","Hunan"
"Tiruppur",11.08042055,77.32999792,547271.5,"India","Tamil Nadu"
"Dortmund",51.52996706,7.450025593,588462,"Germany","Nordrhein-Westfalen"
"Qunghirot",43.0704059,58.90001176,57758,"Uzbekistan","Karakalpakstan"
"Tarin Kowt",32.63329815,65.86669865,10000,"Afghanistan","Uruzgan"
"Lovec",43.13799911,24.71900459,42211,"Bulgaria","Lovech"
"Gisenyi",-1.684665915,29.26290605,83623,"Rwanda","Western"
"Sayhut",15.21050437,51.24544023,189,"Yemen","Al Mahrah"
"Savissivik",76.01947624,-65.11248065,66,"Greenland",""
"Poznan",52.4057534,16.89993974,597174.5,"Poland","Greater Poland"
"Santo Domingo",18.47007285,-69.90008508,1078436.5,"Dominican Republic","Distrito Nacional"
"Cornwall",45.01705711,-74.73333012,47601.5,"Canada","Ontario"
"Nakhon Phanom",17.39447959,104.76946,44986,"Thailand","Nakhon Phanom"
"Apsheronsk",44.46871848,39.72872717,43163.5,"Russia","Krasnodar"
"Rabaul",-4.205490385,152.1434307,5894,"Papua New Guinea","East New Britain"
"Dunedin",-45.87995278,170.4799711,92438.5,"New Zealand","Otago"
"Bedourie",-24.34958738,139.4666186,142,"Australia","Queensland"
"Ndjamena",12.11309654,15.04914831,835193.5,"Chad","Hadjer-Lamis"
"Zwedru",6.070390441,-8.130005332,19459.5,"Liberia","GrandGedeh"
"Ometepec",16.68005292,-98.42002385,24036,"Mexico","Guerrero"
"Slidell",30.27495953,-89.78109379,56019,"United States of America","Louisiana"
"Nguru",12.8803882,10.44999752,82481,"Nigeria","Yobe"
"Westport",-41.77443223,171.5666665,1899,"New Zealand","West Coast"
"Yevpatoriya",45.19689109,33.36306921,90588,"Ukraine","Crimea"
"Al Marj",32.50045677,20.82998409,127427.5,"Libya","Al Hizam Al Akhdar"
"San Pedro",-24.08996499,-57.07998906,7351,"Paraguay","San Pedro"
"Gangtok",27.3333303,88.6166475,54300,"India","Sikkim"
"Nzega",-4.209628073,33.18003129,18325,"Tanzania","Tabora"
"Derby",-17.29999184,123.9666345,3199,"Australia","Western Australia"
"Maizuru",35.4504059,135.3333309,62531.5,"Japan","Kyoto"
"El Alamein",30.81707115,28.94995357,4938,"Egypt","Matruh"
"Majene",-3.533596986,118.9660095,155046,"Indonesia","Sulawesi Barat"
"Rotorua",-38.13458576,176.2454073,51497.5,"New Zealand","Auckland"
"Aswan",24.08750775,32.8989115,277351.5,"Egypt","Aswan"
"Aligarh",27.89221092,78.06178788,779103.5,"India","Uttar Pradesh"
"Arras",50.28332481,2.783333698,55608.5,"France","Nord-Pas-de-Calais"
"Klerksdorp",-26.88002724,26.62001827,163362.5,"South Africa","North West"
"El Oued",33.37040367,6.859984089,177497,"Algeria","Biskra"
"Escuintla",15.33000612,-92.62998967,58313.5,"Mexico","Chiapas"
"Limerick",52.664704,-8.623050172,84066,"Ireland","Limerick"
"Calatrava",1.116403421,9.418587604,628,"Equatorial Guinea","Litoral"
"Qingan",46.87185345,127.5118444,53206,"China","Heilongjiang"
"Khabarovsk",48.4549868,135.1200105,562705.5,"Russia","Khabarovsk"
"Chiang Rai",19.91187115,99.82645422,97941.5,"Thailand","Chiang Rai"
"Chusovoy",58.2934302,57.81304968,61159,"Russia","Perm'"
"Tennant Creek",-19.65002928,134.200015,3490.5,"Australia","Northern Territory"
"Kovel",51.21706626,24.71662024,68850.5,"Ukraine","Volyn"
"Aden",12.77972251,45.00949011,775301,"Yemen","`Adan"
"Ado Ekiti",7.630372741,5.219980834,446749,"Nigeria","Ekiti"
"La Asuncion",11.03333403,-63.8833315,35084,"Venezuela","Nueva Esparta"
"Zhetiqara",52.19297569,61.23992061,44922,"Kazakhstan","Qostanay"
"Teresina",-5.095000388,-42.7800092,746860.5,"Brazil","Piauí"
"Abilene",32.4486253,-99.73278609,108008,"United States of America","Texas"
"Hurdiyo",10.5820272,51.12332882,176,"Somalia","Bari"
"Sixaola",9.520386575,-82.61998051,1150,"Costa Rica","Limón"
"Plattsburg",44.69498374,-73.45798161,24233.5,"United States of America","New York"
"Canoas",-29.91999673,-51.17998743,466661,"Brazil","Rio Grande do Sul"
"Sault Ste. Marie",46.49526145,-84.34527572,50173.5,"United States of America","Michigan"
"Cubal",-13.03958006,14.23999874,4837,"Angola","Benguela"
"Maoming",21.92040489,110.8700179,1217715,"China","Guangdong"
"Kimchaek",40.67230939,129.202749,187270,"North Korea","Hamgyong-bukto"
"Balakovo",52.02998822,47.80001745,172821.5,"Russia","Saratov"
"Puerto Acosta",-15.49958494,-69.16666732,1123,"Bolivia","La Paz"
"La Esmeralda",3.173823058,-65.54660405,149.5,"Venezuela","Amazonas"
"Lerwick",60.15003522,-1.149992108,5604,"United Kingdom","Aberdeen"
"Hong Gai",20.9604118,107.1000154,160490.5,"Vietnam","Quảng Ninh "
"Ghadamis",30.13328859,9.500029662,6623,"Libya","Ghadamis"
"Edirne",41.67043968,26.56999548,114424,"Turkey","Edirne"
"Tocache",-8.179618308,-76.52001693,15822.5,"Peru","San Martín"
"Resistencia",-27.45999184,-58.99002751,368455.5,"Argentina","Chaco"
"Worcester",-33.64002806,19.43993974,109200,"South Africa","Western Cape"
"Besalampy",-16.74953449,44.48332068,1022,"Madagascar","Mahajanga"
"Lebowakgomo",-24.19962238,29.49999752,16852.5,"South Africa","Limpopo"
"Ad Dakhla",23.71405588,-15.93681087,82146,"Morocco","Oued el Dahab"
"Taizhou",32.4904057,119.9000093,612356,"China","Jiangsu"
"Thies",14.8103996,-16.93001083,293001,"Senegal","Thiès"
"Saravan",15.715998,106.4269987,5521,"Laos","Saravan"
"Olbia",40.9142849,9.515071858,44341,"Italy","Sardegna"
"Maastricht",50.85299707,5.677002477,122378,"Netherlands","Limburg"
"Liaoyuan",42.89997703,125.1299743,485898.5,"China","Jilin"
"Vallejo",38.11194887,-122.258052,133367.5,"United States of America","California"
"Swellendam",-34.01959145,20.4300085,8954,"South Africa","Western Cape"
"Bradford",53.80003522,-1.749981325,397708.5,"United Kingdom","West Yorkshire"
"Thanjavur",10.77041363,79.15004187,219571,"India","Tamil Nadu"
"Sodo",6.900003885,37.7499849,65737,"Ethiopia","Southern Nations, Nationalities and Peoples"
"Belleville",38.52515362,-90.0002277,92409.5,"United States of America","Illinois"
"Halmstad",56.67177207,12.85558712,55433,"Sweden","Halland"
"Kasangulu",-4.579579652,15.17999304,22645,"Congo (Kinshasa)","Bas-Congo"
"Mansa",-11.20000242,28.89000891,31357,"Zambia","Luapula"
"Sefra",32.76041506,-0.579949383,51118,"Algeria","Naâma"
"St. Petersburg",59.93901451,30.31602006,4023106,"Russia","City of St. Petersburg"
"Chacabuco",-34.65004393,-60.48998763,26645,"Argentina","Ciudad de Buenos Aires"
"Orange Walk",18.09043194,-88.5599797,18066.5,"Belize","Orange Walk"
"Phangnga",8.451000086,98.53399857,9676,"Thailand","Phangnga"
