"city","latitude","longitude","population","country","province"
"Banes",20.96291811,-75.71859298,47745.5,"Cuba","Holguín"
"Santarem",39.23100008,-8.682002552,29385,"Portugal","Santarém"
"Terrace",54.49999249,-128.5833248,14772,"Canada","British Columbia"
"Tra Vinh",9.934002087,106.3340017,131360,"Vietnam","Trà Vinh"
"Totonicapan",14.91399898,-91.35800061,69734,"Guatemala","Totonicapán"
"Balashov",51.55350568,43.16309119,84107,"Russia","Saratov"
"Luuq",3.800477314,42.55000199,33820,"Somalia","Gedo"
"St.-Brieuc",48.51666262,-2.783303265,52998.5,"France","Bretagne"
"Santo Andre",-23.65283405,-46.52781661,662373,"Brazil","São Paulo"
"Qal eh-ye",34.98300013,63.13329964,2997,"Afghanistan","Badghis"
"Gisenyi",-1.684665915,29.26290605,83623,"Rwanda","Western"
"El Cayo",17.15599807,-89.06100252,13451,"Belize","Cayo"
"Wausau",44.95915367,-89.6299919,56100.5,"United States of America","Wisconsin"
"Sunbury",-37.56960732,144.7100195,18677.5,"Australia","Victoria"
"Lublin",51.25039756,22.57272009,358001,"Poland","Lublin"
"Ambanja",-13.68289996,48.45000362,26231.5,"Madagascar","Antsiranana"
"Selawik",66.60387901,-160.0093911,832,"United States of America","Alaska"
"Chiang Rai",19.91187115,99.82645422,97941.5,"Thailand","Chiang Rai"
"Shaowu",27.30038658,117.5000008,56889.5,"China","Fujian"
"Sagar",23.85039044,78.75001461,287786.5,"India","Madhya Pradesh"
"Timmins",48.46658815,-81.33331486,33937.5,"Canada","Ontario"
"Novomoskovsk",54.09001752,38.21998205,74591.5,"Russia","Tula"
"Geraldton",-28.76663043,114.5999711,27065,"Australia","Western Australia"
"Chaguaramas",9.215934874,-63.75226913,12500,"Venezuela","Anzoátegui"
"Eregli",37.50627525,34.05165767,86563,"Turkey","Konya"
"Petrovsk Zabaykalskiy",51.28269533,108.8326745,20301,"Russia","Chita"
"Dalian",38.92283839,121.6298308,2601153.5,"China","Liaoning"
"Zhongli",24.96502525,121.2167765,1001193,"Taiwan","Taoyuan"
"Perth",56.40034161,-3.469979697,39654,"United Kingdom","Perthshire and Kinross"
"Castillos",-34.16960814,-53.82998071,7686,"Uruguay","Rocha"
"Vienna",48.20001528,16.36663896,2065500,"Austria","Wien"
"Uryupinsk",50.77344993,42.00305863,37993.5,"Russia","Volgograd"
"Metz",49.1203467,6.180025593,266550,"France","Lorraine"
"Mamou",10.38038576,-12.1000214,56386,"Guinea","Mamou"
"Villanueva",22.35001691,-102.88001,9093.5,"Mexico","Zacatecas"
"Aleksin",54.5143327,37.09436601,59194,"Russia","Tula"
"Wenatchee",47.42362856,-120.3090237,45892,"United States of America","Washington"
"Pachuca",20.17043418,-98.73003076,310861,"Mexico","Hidalgo"
"Linden",5.99000775,-58.2699681,28041.5,"Guyana","Upper Takutu-Upper Essequibo"
"Bombo",0.583299106,32.53329952,48000,"Uganda","Bamunanika"
"Dubrovnik",42.66094769,18.09139156,32711,"Croatia","Dubrovacko-Neretvanska"
"Muconda",-10.59962563,21.31998002,2324,"Angola","Lunda Sul"
"Chihuahua",28.64498151,-106.0849823,750633.5,"Mexico","Chihuahua"
"Boffa",10.18500307,-14.04299645,2332,"Guinea","Boke"
"Young",-34.30959959,148.2900077,6422,"Australia","New South Wales"
"Januaria",-15.47999957,-44.36998967,25753,"Brazil","Minas Gerais"
"Menongue",-14.66661253,17.69999426,13030,"Angola","Cuando Cubango"
"Besancon",47.22999697,6.03000891,124193,"France","Franche-Comté"
"Jawhar",2.767000345,45.51659094,86654,"Somalia","Shabeellaha Dhexe"
"Pires do Rio",-17.29952675,-48.27998356,21688,"Brazil","Goiás"
"Roanoke",37.27119916,-79.94161686,144669.5,"United States of America","Virginia"
"Tiksi",71.62688552,128.8349668,5700,"Russia","Sakha (Yakutia)"
"Volos",39.36995994,22.95000972,97528.5,"Greece","Thessalia"
"Dimitrovgrad",54.25042116,49.56001339,121213.5,"Russia","Ul'yanovsk"
"Waingapu",-9.658236065,120.253011,35990.5,"Indonesia","Nusa Tenggara Timur"
"Thermopolis",43.64597801,-108.2146715,3195,"United States of America","Wyoming"
"Mansfield",40.75832481,-82.51554244,64039,"United States of America","Ohio"
"Qardho",9.500413634,49.16598059,1341,"Somalia","Bari"
"Sault Ste. Marie",46.49526145,-84.34527572,50173.5,"United States of America","Michigan"
"Guaranda",-1.60999347,-79.01001998,23933,"Ecuador","Bolivar"
"Victoriaville",34.5365082,-117.2903191,83496,"United States of America","California"
"Petropolis",-22.50949298,-43.19998356,279381,"Brazil","Rio de Janeiro"
"Fort McPherson",67.49152508,-134.8949809,1069,"Canada","Northwest Territories"
"San Carlos",9.657999007,-68.58999854,77192,"Venezuela","Cojedes"
"Burgas",42.51460004,27.47464311,174254,"Bulgaria","Burgas"
"Awjilah",29.10802818,21.2869071,6610,"Libya","Ajdabiya"
"Maridi",4.91511212,29.47694983,7757.5,"South Sudan","West Equatoria"
"Medani",14.39995953,33.52001054,308540.5,"Sudan","Gezira"
"Andoas",-2.902059307,-76.40247888,10,"Peru","Loreto"
"Echuca",-36.12959186,144.750017,13460,"Australia","New South Wales"
"Bol",13.45895754,14.71469844,3303,"Chad","Lac"
"Debrecen",47.53046958,21.63003861,217705,"Hungary","Hajdú-Bihar"
"Battle Creek",42.32109764,-85.17974675,62454,"United States of America","Michigan"
"Lahti",60.99385968,25.66493445,97508,"Finland","Päijänne Tavastia"
"Rayong",12.67184796,101.2814559,37035,"Thailand","Rayong"
"Pleven",43.42376935,24.61337073,110445.5,"Bulgaria","Pleven"
"Yendi",9.433725198,-0.016650433,30841.5,"Ghana","Northern"
"Taubate",-23.01953937,-45.55999455,327600.5,"Brazil","São Paulo"
"Batman",37.89041201,41.14001054,276337.5,"Turkey","Batman"
"Kamyanets-Podilskyy",48.68430096,26.58089921,107329,"Ukraine","Khmel'nyts'kyy"
"Halfway Tree",18.0333001,-76.79999651,96494,"Jamaica","Saint Andrew"
"Surgut",61.25994163,73.42501664,353351.5,"Russia","Khanty-Mansiy"
"Tyumen",57.14001223,65.52999467,460952,"Russia","Tyumen'"
"Pozo Colorado",-23.43000527,-58.85998377,2135,"Paraguay","Presidente Hayes"
"Dubbo",-32.25995726,148.5973274,30467.5,"Australia","New South Wales"
"Kulob",37.92115948,69.77573035,96975,"Tajikistan","Khatlon"
"Kerman",30.29999676,57.08001949,556518,"Iran","Kerman"
"Haiphong",20.83000633,106.6800927,1285847.5,"Vietnam","Quảng Ninh"
"Sangar",63.92414593,127.4739139,4633,"Russia","Sakha (Yakutia)"
"Moyeni",-30.41099991,27.71600451,24130,"Lesotho","Quthing"
"Robore",-18.3295414,-59.75998051,9959,"Bolivia","Santa Cruz"
"Ha Giang",22.83365664,104.9833488,35526,"Vietnam","Hà Giang"
"Shenzhen",22.55237051,114.1221231,4291796,"China","Guangdong"
"Berri",-34.28293455,140.6000378,4523,"Australia","South Australia"
"Tarabuco",-19.18003213,-64.91994979,2364,"Bolivia","Chuquisaca"
"Biloela",-24.39356403,150.4960746,4366.5,"Australia","Queensland"
"Zaozernyy",55.96197044,94.70278764,33865,"Russia","Krasnoyarsk"
"Kuopio",62.89428632,27.69493974,90502,"Finland","Eastern Finland"
"Malargue",-35.46611815,-69.58330855,11847,"Argentina","Mendoza"
"Unalaska",53.868584,-166.5316028,1938.5,"United States of America","Alaska"
