"city","latitude","longitude","population","country","province"
"Huaibei",33.95036826,116.7500207,908019.5,"China","Anhui"
"Garanhuns",-8.890014222,-36.50003076,107115,"Brazil","Pernambuco"
"New Delhi",28.60002301,77.19998002,317797,"India","Delhi"
"Arapongas",-23.41000649,-51.43004968,91203.5,"Brazil","Paraná"
"Baoji",34.38000612,107.1499865,8e+05,"China","Shaanxi"
"Ust Kuyga",70.01705568,135.6000329,1517,"Russia","Sakha (Yakutia)"
"Saginaw",43.4194802,-83.95082951,89457.5,"United States of America","Michigan"
"Aquidauana",-20.46961749,-55.79001611,38053,"Brazil","Mato Grosso do Sul"
"Tacloban",11.25043601,125.0000081,234548,"Philippines","Leyte"
"Chachoengsao",13.67900105,101.0760037,49741,"Thailand","Chachoengsao"
"Tillamook",45.45524742,-123.8425031,6351.5,"United States of America","Oregon"
"Makkah",21.43002138,39.82003943,1354312,"Saudi Arabia","Makkah"
"Yeysk",46.69878908,38.26339026,76591.5,"Russia","Krasnodar"
"Kakinada",16.96747723,82.23750199,292923,"India","Andhra Pradesh"
"Chaghcharan",34.5167011,65.25000063,15000,"Afghanistan","Ghor"
"Nimes",43.83038535,4.350008096,158891.5,"France","Languedoc-Roussillon"
"Komatipoort",-25.40957436,31.94000362,10333.5,"South Africa","Mpumalanga"
"Shiraz",29.62996014,52.57001054,1240000,"Iran","Fars"
"Nuevo Rocafuerte",-0.932928854,-75.39998194,40,"Peru","Loreto"
"Norway House",53.96658836,-97.83328963,5500,"Canada","Manitoba"
"Mopti",14.48997988,-4.180039715,93269.5,"Mali","Mopti"
"Tartu",58.38394147,26.70988358,90033.5,"Estonia","Tartu"
"Ivugivik",62.41664105,-77.89998438,156,"Canada","Québec"
"Kendari",-3.95532835,122.5973124,165377,"Indonesia","Sulawesi Tenggara"
"Bac Kan",22.1333333,105.8333333,29227,"Vietnam","Bac Kan"
"Achacachi",-16.08332192,-68.66656865,8447,"Bolivia","La Paz"
"McMurdo Station",-77.73228239,166.8694157,600,"Antarctica",""
"Valera",9.319959533,-70.6200153,142461.5,"Venezuela","Trujillo"
"Santa Fe",-31.62387205,-60.69000126,393504,"Argentina","Santa Fe"
"Tecpan",17.24999229,-100.6799893,14638,"Mexico","Guerrero"
"Panzhihua",26.5499931,101.7300073,446298,"China","Sichuan"
"Barcelona",41.38329958,2.183370319,3250797.5,"Spain","Cataluña"
"Penticton",49.50037518,-119.5832799,34035,"Canada","British Columbia"
"Denton",33.21576194,-97.12883651,138952.5,"United States of America","Texas"
"Angangxi",47.16005292,123.8000297,24317,"China","Heilongjiang"
"Sitapur",27.6300047,80.74999589,164435,"India","Uttar Pradesh"
"Caballococha",-3.916260967,-70.50834253,3195,"Peru","Loreto"
"Taraz",42.89997703,71.36498734,332723.5,"Kazakhstan","Zhambyl"
"Igarka",67.46710797,86.58333492,6262,"Russia","Krasnoyarsk"
"As Sulaymaniyah",35.56127769,45.43085974,654318,"Iraq","As-Sulaymaniyah"
"Duque de Caxias",-22.76999388,-43.30997685,842890,"Brazil","Rio de Janeiro"
"Korce",40.61667601,20.76666353,58259,"Albania","Korçë"
"Alesund",62.54541872,6.388023233,45377,"Norway","Møre og Romsdal"
"Hannover",52.36697023,9.716657266,618815,"Germany","Niedersachsen"
"Caacupe",-25.38700191,-57.14000047,21696,"Paraguay","Cordillera"
"Mokhotlong",-29.29100403,29.07800155,8809,"Lesotho","Mokhotlong"
"Nizhneudinsk",54.89766848,99.02769161,41024.5,"Russia","Irkutsk"
"Rzhev",56.2574046,34.32745479,62830,"Russia","Tver'"
"Fort Collins",40.56068829,-105.0588693,178818.5,"United States of America","Colorado"
"Ilorin",8.490010192,4.549995889,701742,"Nigeria","Kwara"
"Bani Walid",31.77039797,13.98998816,55871,"Libya","Bani Walid"
"Shakhty",47.72038047,40.2700378,206203.5,"Russia","Rostov"
"Kingaroy",-26.53896279,151.840592,7494.5,"Australia","Queensland"
"Johnson City",36.31332481,-82.35361434,68070.5,"United States of America","Tennessee"
"Langsa",4.673576476,97.96636104,117256,"Indonesia","Aceh"
"Hammerfest",70.66127993,23.68800085,9967,"Norway","Finnmark"
"Kaniama",-7.569629701,24.17003861,32946.5,"Congo (Kinshasa)","Katanga"
"Manga",11.66200198,-1.064996408,15173,"Burkina Faso","Zoundwéogo"
"Mango",10.35956016,0.470813353,40187,"Togo","Savanes"
"Merida",38.91200402,-6.337997512,52423,"Spain","Extremadura"
"Makarov",48.63373557,142.8000069,4571.5,"Russia","Sakhalin"
"North Battleford",52.76663576,-108.2833494,15721.5,"Canada","Saskatchewan"
"Arys",42.43687868,68.80483354,39466.5,"Kazakhstan","South Kazakhstan"
"Kimmirut",62.85002545,-69.88331608,385,"Canada","Nunavut"
"Huacho",-11.11003375,-77.61994979,67509.5,"Peru","Lima"
"Pindamonhangaba",-22.91995888,-45.47002588,123985,"Brazil","São Paulo"
"Criciuma",-28.68002073,-49.38996749,183085.5,"Brazil","Santa Catarina"
"Amarillo",35.22998008,-101.8299966,178526,"United States of America","Texas"
"Ganca",40.68499595,46.35002844,301699.5,"Azerbaijan","Ganca"
"Yambio",4.57053367,28.41634273,24420.5,"South Sudan","West Equatoria"
"Pagadian",7.852968973,123.5070243,159590,"Philippines","Zamboanga Del Sur"
"Linfen",36.08034161,111.520004,533283,"China","Shanxi"
"Taldyqorghan",45.00000389,78.40001013,88380,"Kazakhstan","Almaty"
"Nagercoil",8.180365009,77.42999182,219093.5,"India","Tamil Nadu"
"San Juan",18.80700306,-71.22899657,72950,"Dominican Republic","San Juan"
"Kumamoto",32.80092938,130.700642,699327.5,"Japan","Kumamoto"
"Balykchy",42.4560248,76.18536495,40263.5,"Kyrgyzstan","Ysyk-Köl"
"Chapayevsk",52.97432334,49.72434444,88655.5,"Russia","Samara"
"Lata",-10.73801832,165.8567353,553,"Solomon Islands","Temotu"
"Jining",41.02998781,113.0800122,270236.5,"China","Nei Mongol"
"Trento",46.08042889,11.11998246,106377,"Italy","Trentino-Alto Adige"
"Stamford",41.05334556,-73.53919112,434781.5,"United States of America","Connecticut"
"Xiamen",24.44999208,118.080017,1548668.5,"China","Fujian"
"Wheeling",40.06431032,-80.72107833,40940,"United States of America","West Virginia"
"Beaumont",30.08626304,-94.10168278,107455.5,"United States of America","Texas"
"Chulucanas",-5.089574362,-80.17000086,60435,"Peru","Piura"
"Gay",51.47472495,58.45430253,39710,"Russia","Orenburg"
"Mudangiang",44.57501691,129.5900122,954957.5,"China","Heilongjiang"
"Provo",40.24889854,-111.63777,231238,"United States of America","Utah"
"Bunia",1.560407327,30.24000403,61537,"Congo (Kinshasa)","Orientale"
"Ajaccio",41.92706484,8.728293822,46905,"France","Corse"
"Polevskoy",56.44341392,60.18804683,42706,"Russia","Sverdlovsk"
"Bhuj",23.25037539,69.80999182,289429,"India","Dadra and Nagar Haveli"
"Abong Mbang",3.983696105,13.18331905,7698,"Cameroon","Est"
"Salama",15.10299903,-90.31400061,40000,"Guatemala","Baja Verapaz"
"Tayynsha",53.84812014,69.76379309,7128.5,"Kazakhstan","North Kazakhstan"
"Banes",20.96291811,-75.71859298,47745.5,"Cuba","Holguín"
"Keetmanshoop",-26.57389606,18.12999385,16823.5,"Namibia","Karas"
"Astana",51.1811253,71.42777421,335312.5,"Kazakhstan","Aqmola"
"Khmelnytskyy",49.42492759,27.00154537,322093,"Ukraine","Khmel'nyts'kyy"
