"city","latitude","longitude","population","country","province"
"El Agheila",30.25702781,19.20000606,100,"Libya","Ajdabiya"
"Cahul",45.90788129,28.19444413,48949.5,"Moldova","Cahul"
"El Faiyum",29.31003135,30.83996741,311582.5,"Egypt","Al Fayyum"
"May Pen",17.96661521,-77.23328089,89948.5,"Jamaica","Clarendon"
"My Tho",10.35041343,106.3500354,123226.5,"Vietnam","Tiền Giang "
"Kimberley",-28.74683836,24.77000199,153676.5,"South Africa","Northern Cape"
"Penonome",8.509983133,-80.35998926,20580,"Panama","Coclé"
"Medea",36.27040753,2.770001179,145863.5,"Algeria","Médéa"
"Andkhvoy",36.93165916,65.10149369,50469,"Afghanistan","Faryab"
"Ballarat",-37.55958209,143.8400468,73404,"Australia","Victoria"
"Lamphun",18.50300114,99.07399856,14030,"Thailand","Lamphun"
"Piracicaba",-22.70999754,-47.63999679,329530,"Brazil","São Paulo"
"Fortaleza",-3.750017884,-38.57998132,2958717.5,"Brazil","Ceará"
"Prince Albert",53.20002016,-105.7499899,29643.5,"Canada","Saskatchewan"
"Whakatane",-37.98291543,176.9999865,20665,"New Zealand","Bay of Plenty"
"Papeete",-17.53336261,-149.5666694,78856,"French Polynesia",""
"Az Zawiyah",32.76041506,12.71998816,193061.5,"Libya","Az Zawiyah"
"San Borja",-14.81962645,-66.84996118,19640,"Bolivia","El Beni"
"Cauquenes",-35.96004148,-72.31998906,24155,"Chile","Maule"
"Kibungo",-2.166695932,30.53330158,46240,"Rwanda","Eastern"
"Yian",47.88039654,125.2999898,39924,"China","Heilongjiang"
"Manhattan",39.19402753,-96.59243514,51289,"United States of America","Kansas"
"Oral",51.27111981,51.33499548,204894,"Kazakhstan","West Kazakhstan"
"Beaver Falls",40.75194277,-80.31942326,64814.5,"United States of America","Pennsylvania"
"Ubon Ratchathani",15.24995933,104.8300248,198213,"Thailand","Ubon Ratchathani"
"Austin",30.26694969,-97.74277836,919684,"United States of America","Texas"
"Blagodarnyy",45.10472618,43.43439245,28070.5,"Russia","Stavropol'"
"Scottsdale",33.69234784,-111.8680402,15401,"United States of America","Arizona"
"Shonzhy",43.54208254,79.47028072,3902,"Kazakhstan","Almaty"
"Perugia",43.11037762,12.38998246,141998,"Italy","Umbria"
"Gogrial",8.533728454,28.1166711,44318.5,"South Sudan","Warap"
"Juticalpa",14.67040814,-86.22996688,35564,"Honduras","Olancho"
"Helong",42.53475384,129.0043632,83032.5,"China","Jilin"
"Shar e Kord",32.32099805,50.85399659,129153,"Iran","Chahar Mahall and Bakhtiari"
"Deer Lake",52.61703249,-94.06659448,3743,"Canada","Ontario"
"Lujan",-34.57960895,-59.10999435,69744.5,"Argentina","Ciudad de Buenos Aires"
"Zanjan",36.67002138,48.50002641,355012.5,"Iran","Zanjan"
"Mundybash",53.23327395,87.31667517,5870,"Russia","Kemerovo"
"Wellington",-41.29997394,174.7832743,296300,"New Zealand","Manawatu-Wanganui"
"Carupano",10.67000633,-63.23000126,119187.5,"Venezuela","Sucre"
"Gangtok",27.3333303,88.6166475,54300,"India","Sikkim"
"Memphis",35.1199868,-89.99999516,753843.5,"United States of America","Tennessee"
"Mopipi",-21.17954832,24.88002112,3301,"Botswana","Central"
"Dundee",56.47038902,-3.000008384,151013.5,"United Kingdom","Dundee"
"Blackpool",53.83039512,-3.050005332,207946.5,"United Kingdom","Lancashire"
"Qunghirot",43.0704059,58.90001176,57758,"Uzbekistan","Karakalpakstan"
"Cuauhtemoc",28.42574424,-106.8695856,84967.5,"Mexico","Chihuahua"
"Tacheng",46.75002626,82.95001664,49796,"China","Xinjiang Uygur"
"Omsk",54.98998842,73.39995357,1089201.5,"Russia","Omsk"
"Lop Buri",14.80401756,100.6186023,42130.5,"Thailand","Lop Buri"
"Collipulli",-37.95997109,-72.43000818,11307.5,"Chile","La Araucanía"
"Jinan",36.67498232,116.9950187,2433633,"China","Shandong"
"Caracas",10.50099855,-66.91703719,2400339.5,"Venezuela","Distrito Capital"
"Gdansk",54.3599752,18.64004024,597915,"Poland","Pomeranian"
"Musoma",-1.489587383,33.79999345,127137.5,"Tanzania","Mara"
"Sampit",-2.532934551,112.9500459,79381.5,"Indonesia","Kalimantan Tengah"
"Al Qamishli",37.03002525,41.22997921,104107,"Syria","Hasaka (Al Haksa)"
"Damascus",33.500034,36.29999589,2466000,"Syria","Damascus"
"Nuevo Laredo",27.4999868,-99.55000655,255152.5,"Mexico","Tamaulipas"
"Arawa",-6.228000033,155.5659907,40266,"Papua New Guinea","North Solomons"
"Rampur",28.8153587,79.0249849,296418,"India","Uttar Pradesh"
"Gaya",11.88817486,3.446652383,29394.5,"Niger","Dosso"
"Phatthalung",7.61499898,100.0809996,43522,"Thailand","Phatthalung"
"Utkholok",57.55040061,157.2333378,10,"Russia","Kamchatka"
"El Calafate",-50.33332436,-72.30001612,6329,"Argentina","Santa Cruz"
"Kisoro",-1.3538889,29.6983333,12900,"Uganda","Kisoro"
"Mandalay",21.96998842,96.08502885,1167000,"Myanmar","Mandalay"
"Fasa",28.97183494,53.67149369,111259.5,"Iran","Fars"
"New Glasgow",45.58327578,-62.63331934,19883.5,"Canada","Nova Scotia"
"Muineachan",54.25,-6.9666667,5937,"Ireland","Monaghan"
"Khilok",51.35000389,110.4500435,6540.5,"Russia","Chita"
"Sheikhu Pura",31.71998761,73.98999508,361303,"Pakistan","Punjab"
"Buea",4.155003087,9.231003513,90088,"Cameroon","Sud-Ouest"
"La Scie",49.96701337,-55.58300033,817,"Canada","Newfoundland and Labrador"
"Er Rachidia",31.94041343,-4.449971559,228489,"Morocco","Meknès - Tafilalet"
"Lafayette",40.41720868,-86.87824772,98104,"United States of America","Indiana"
"Tejen",37.37860862,60.49603837,62649.5,"Turkmenistan","Ahal"
"Soke",37.75122154,27.41025427,72785.5,"Turkey","Aydin"
"Ferrenafe",-6.629997133,-79.80002344,42270.5,"Peru","Lambayeque"
"Tindouf",27.67418805,-8.147782025,18270,"Algeria","Tindouf"
"Meadow Lake",54.13011843,-108.4347356,5081.5,"Canada","Saskatchewan"
"Ivugivik",62.41664105,-77.89998438,156,"Canada","Québec"
"Salama",15.10299903,-90.31400061,40000,"Guatemala","Baja Verapaz"
"Chascomus",-35.56621539,-58.01662439,21054,"Argentina","Ciudad de Buenos Aires"
"Cayenne",4.932992166,-52.33002059,57179.5,"France","Guinaa"
"Uray",60.14013918,64.75479651,20361,"Russia","Khanty-Mansiy"
"Selkirk",50.15002545,-96.88332178,9819.5,"Canada","Manitoba"
"Kundiawa",-6.022997883,144.9600127,9383,"Papua New Guinea","Chimbu"
"Vitsyebsk",55.18871014,30.18533036,333318.5,"Belarus","Vitsyebsk"
"Chongju",39.68128461,125.2163256,85417,"North Korea","P'yongan-bukto"
"Qomsheh",32.01149436,51.85971798,118301,"Iran","Esfahan"
"Stawell",-37.05961261,142.7600093,4596,"Australia","Victoria"
"Ourense",42.32996014,-7.869995363,113095,"Spain","Galicia"
"Qal eh-ye",34.98300013,63.13329964,2997,"Afghanistan","Badghis"
"Dutse",11.7991891,9.350334607,17129,"Nigeria","Jigawa"
"Calais",50.95041587,1.833314167,83317,"France","Nord-Pas-de-Calais"
"Rawson",-43.3000069,-65.09999048,25062.5,"Argentina","Chubut"
"Opobo",4.570404479,7.559993041,34911,"Nigeria","Akwa Ibom"
"Victoria",-38.23954059,-72.34001367,17989.5,"Chile","La Araucanía"
"Fria",10.38038576,-13.54998458,23729,"Guinea","Boke"
