"city","latitude","longitude","population","country","province"
"Oranjemund",-28.54948606,16.42999426,7223,"Namibia","Karas"
"Green River",41.51455772,-109.4649827,10239.5,"United States of America","Wyoming"
"Yomou",7.570428079,-9.269987428,2607.5,"Guinea","Nzerekore"
"Paracuru",-3.399548321,-39.04003076,19860,"Brazil","Ceará"
"Atqasuk",70.4693795,-157.395778,201,"United States of America","Alaska"
"Chumbicha",-28.86662433,-66.23330632,2572,"Argentina","Catamarca"
"Boffa",10.18500307,-14.04299645,2332,"Guinea","Boke"
"Vilyuysk",63.75526735,121.6247619,5543.5,"Russia","Sakha (Yakutia)"
"Udachnyy",66.42316652,112.3965397,15266,"Russia","Sakha (Yakutia)"
"Alor Setar",6.113307718,100.3729325,276921.5,"Malaysia","Kedah"
"Kiselevsk",54.00002301,86.64002397,87164,"Russia","Kemerovo"
"East London",-32.97004311,27.87001949,338627,"South Africa","Eastern Cape"
"Kasama",-10.19959837,31.17994665,156500,"Zambia","Northern"
"Tom Price",-22.69346108,117.7930578,1822,"Australia","Western Australia"
"Bredasdorp",-34.52953449,20.02998124,8453,"South Africa","Western Cape"
"Poti",42.15565554,41.671606,46001,"Georgia","Samegrelo-Zemo Svaneti"
"Mwenga",-3.038226706,28.43251745,2216,"Congo (Kinshasa)","Sud-Kivu"
"Chaozhou",23.68003908,116.630028,424787,"China","Guangdong"
"Coffeyville",37.03806093,-95.6263184,10955,"United States of America","Kansas"
"Gaya",11.88817486,3.446652383,29394.5,"Niger","Dosso"
"Mkokotoni",-5.878997975,39.25999862,2572,"Tanzania","Kaskazini-Unguja"
"Victoria",28.80499758,-97.00334029,63126.5,"United States of America","Texas"
"Khabarovsk",48.4549868,135.1200105,562705.5,"Russia","Khabarovsk"
"Cyangugu",-2.479604473,28.89998246,19900,"Rwanda","Western"
"Lihue",21.98151227,-159.3710063,10694.5,"United States of America","Hawaii"
"Sunyani",7.335998991,-2.336003416,70299,"Ghana","Brong Ahafo"
"Colima",19.22997479,-103.7200104,175261,"Mexico","Colima"
"Independence",39.09111391,-94.41528121,130695,"United States of America","Missouri"
"Artigas",-30.41598712,-56.48602014,32072.5,"Uruguay","Artigas"
"Santa Barbara",-37.67001463,-72.01998153,3494,"Chile","Bío-Bío"
"Shuangyashan",46.67041872,131.3500081,5e+05,"China","Heilongjiang"
"Koupela",12.17700004,-0.356003514,32052,"Burkina Faso","Kouritenga"
"Porlamar",10.9603762,-63.84998926,142027,"Venezuela","Nueva Esparta"
"Nizhneudinsk",54.89766848,99.02769161,41024.5,"Russia","Irkutsk"
"Bunbury",-33.34428384,115.6502429,26683.5,"Australia","Western Australia"
"Port Morant",17.89100103,-76.32899957,11536,"Jamaica","Saint Thomas"
"Myingyan",21.46182823,95.39142777,152762.5,"Myanmar","Mandalay"
"Yitulihe",50.65162274,121.5166548,19645,"China","Nei Mongol"
"London",42.9699986,-81.24998661,340900,"Canada","Ontario"
"Jacmel",18.23499903,-72.53700258,33563,"Haiti","Sud-Est"
"Focsani",45.69655052,27.186547,92636.5,"Romania","Vrancea"
"Barras",-4.250039043,-42.29998682,11951.5,"Brazil","Piauí"
"Zanzibar",-6.159999981,39.20002559,388439,"Tanzania","Zanzibar West"
"Antofagasta",-23.64999184,-70.40000289,295539,"Chile","Antofagasta"
"Saarbrucken",49.25039044,6.970003213,472871,"Germany","Saarland"
"Nyanza",-2.349586569,29.74003454,225209,"Rwanda","Southern"
"Luxor",25.70001914,32.6500378,548572,"Egypt","Qina"
"Jambi",-1.589994691,103.6100476,438706.5,"Indonesia","Jambi"
"Gaborone",-24.64631346,25.91194779,183827,"Botswana","South-East"
"Xuddur",4.183298973,43.86670261,1639,"Somalia","Bakool"
"Bikin",46.82025454,134.2649206,19264.5,"Russia","Khabarovsk"
"Tunguskhaya",64.90044293,125.2500187,10,"Russia","Sakha (Yakutia)"
"Slobozia",44.56999806,27.38199659,52693,"Romania","Ialomita"
"Liaoyuan",42.89997703,125.1299743,485898.5,"China","Jilin"
"Lascano",-33.66958698,-54.20000981,5215.5,"Uruguay","Rocha"
"Zenica",44.21997398,17.91998083,151388,"Bosnia and Herzegovina","Zenica-Doboj"
"Calulo",-9.999610577,14.90001013,795,"Angola","Cuanza Sul"
"Emmonak",62.77698081,-164.5229916,100,"United States of America","Alaska"
"Ambarchik",69.65100568,162.3335949,0,"Russia","Sakha (Yakutia)"
"Constantine",36.35998863,6.599948281,527638,"Algeria","Constantine"
"Novotroitsk",51.20001304,58.33002071,90278.5,"Russia","Orenburg"
"Songkhla",7.209959126,100.5600012,48616,"Thailand","Songkhla (Songkhla Lake)"
"Okahandja",-21.97960285,16.91001664,19691,"Namibia","Otjozondjupa"
"Tikrit",34.59704714,43.67696163,49534,"Iraq","Sala ad-Din"
"Mbanza-Ngungu",-5.249616273,14.86001257,141950.5,"Congo (Kinshasa)","Bas-Congo"
"Kuching",1.529969909,110.3299991,537685,"Malaysia","Sarawak"
"Nasik",20.00041872,73.77998205,1381248.5,"India","Maharashtra"
"Guanambi",-14.22958494,-42.78998275,45730,"Brazil","Bahia"
"Saint-Louis",16.01998985,-16.51001062,198396,"Mauritania","Trarza"
"Solnechnogorsk",56.18069094,36.98088456,48043,"Russia","Moskovsskaya"
"Dinguiraye",11.29899604,-10.72600144,6062,"Guinea","Faranah"
"Beyneu",45.18335187,55.10003699,32452,"Kazakhstan","Mangghystau"
"Usinsk",65.92304201,57.40299719,42913.5,"Russia","Komi"
"Brokopondo",5.040375792,-55.02001144,6170,"Suriname","Brokopondo"
"Homer",59.64293439,-151.5482797,5021.5,"United States of America","Alaska"
"Camana",-16.61961994,-72.71999048,18695,"Peru","Arequipa"
"Barra do Corda",-5.509600404,-45.25996118,48901,"Brazil","Maranhão"
"Fengzhen",40.45469993,113.1443493,85809,"China","Nei Mongol"
"Shkoder",42.06845156,19.51884965,122006,"Albania","Shkodër"
"Naltchik",43.4981059,43.61794714,290333,"Russia","Kabardin-Balkar"
"Bella Union",-30.25961424,-57.59995732,17947,"Uruguay","Artigas"
"Kyrenia",35.3259991,33.33300361,26701,"Northern Cyprus",""
"Zillah",28.55041363,17.58336055,10,"Libya","Al Jufrah"
"Zheleznogorsk Ilimskiy",56.57624819,104.1226778,27291,"Russia","Irkutsk"
"Zaporizhzhya",47.85729718,35.17680863,600778.5,"Ukraine","Zaporizhzhya"
"Macara",-4.379591859,-79.94998845,11748,"Ecuador","Loja"
"Wilcannia",-31.56620115,143.3833304,442,"Australia","New South Wales"
"Thargomindah",-27.99995888,143.816689,203,"Australia","Queensland"
"Puerto Lempira",15.26202578,-83.77164148,4760,"Honduras","Gracias a Dios"
"Okha",53.57389915,142.9478531,25461,"Russia","Sakhalin"
"Acarigua",9.580382913,-69.20002446,202312.5,"Venezuela","Portuguesa"
"Klaksvik",62.2374783,-6.53901149,4664,"Faroe Islands","Eysturoyar"
"Sterlitamak",53.62999392,55.96003617,220040,"Russia","Bashkortostan"
"Bethanie",-26.49953367,17.15000199,8122,"Namibia","Karas"
"Tlimcen",34.89041424,-1.32000757,181059,"Algeria","Tlemcen"
"Ussuriysk",43.80002545,132.019993,140673.5,"Russia","Primor'ye"
"Qusmuryn",52.45799827,64.59997392,4345.5,"Kazakhstan","Qostanay"
"Uliastay",47.75001691,96.81671545,8056,"Mongolia","Dzavhan"
"Denver",39.73918805,-104.984016,1930799.5,"United States of America","Colorado"
"Zrenjanin",45.3786371,20.39946773,64053,"Serbia","Srednje-Banatski"
